[
    {
        "id": "2024",
        "name": "Abilene Christian University",
        "city": "Abilene",
        "state": "Texas",
        "lat": 32.4697,
        "lng": -99.7081,
        "attending": 1,
        "accepted": 2,
        "rate": 64
    },
    {
        "id": "2026",
        "name": "Lincoln University",
        "city": "Jefferson City",
        "state": "Missouri",
        "lat": 38.5657,
        "lng": -92.1778,
        "attending": 1,
        "accepted": 2,
        "rate": 90
    },
    {
        "id": "2027",
        "name": "Central Texas College",
        "city": "Killeen",
        "state": "Texas",
        "lat": 31.1171,
        "lng": -97.7278,
        "attending": 1,
        "accepted": 4,
        "rate": 100
    },
    {
        "id": "2029",
        "name": "University of the Pacific",
        "city": "Stockton",
        "state": "California",
        "lat": 37.9616,
        "lng": -121.2917,
        "attending": 0,
        "accepted": 2,
        "rate": 71
    },
    {
        "id": "2030",
        "name": "Rice University",
        "city": "Houston",
        "state": "Texas",
        "lat": 29.7174,
        "lng": -95.4018,
        "attending": 1,
        "accepted": 6,
        "rate": 9
    },
    {
        "id": "2031",
        "name": "Charles R Drew University of Medicine and Science",
        "city": "Los Angeles",
        "state": "California",
        "lat": 33.9207,
        "lng": -118.2437,
        "attending": 0,
        "accepted": 1,
        "rate": 80
    },
    {
        "id": "2051",
        "name": "University of North Carolina Wilmington",
        "city": "Wilmington",
        "state": "North Carolina",
        "lat": 34.2255,
        "lng": -77.8755,
        "attending": 0,
        "accepted": 8,
        "rate": 68
    },
    {
        "id": "2053",
        "name": "Indiana State University",
        "city": "Terre Haute",
        "state": "Indiana",
        "lat": 39.4696,
        "lng": -87.4075,
        "attending": 0,
        "accepted": 35,
        "rate": 92
    },
    {
        "id": "2054",
        "name": "Seton Hall University",
        "city": "South Orange",
        "state": "New Jersey",
        "lat": 40.7431,
        "lng": -74.2469,
        "attending": 0,
        "accepted": 7,
        "rate": 78
    },
    {
        "id": "2055",
        "name": "Grand Canyon University",
        "city": "Phoenix",
        "state": "Arizona",
        "lat": 33.5138,
        "lng": -112.1303,
        "attending": 2,
        "accepted": 6,
        "rate": 81
    },
    {
        "id": "2061",
        "name": "The New School",
        "city": "New York",
        "state": "New York",
        "lat": 40.7354,
        "lng": -73.9971,
        "attending": 1,
        "accepted": 3,
        "rate": 57
    },
    {
        "id": "2062",
        "name": "University of Louisville",
        "city": "Louisville",
        "state": "Kentucky",
        "lat": 38.2130,
        "lng": -85.7586,
        "attending": 4,
        "accepted": 29,
        "rate": 74
    },
    {
        "id": "2063",
        "name": "Georgetown University",
        "city": "Washington",
        "state": "District of Columbia",
        "lat": 38.9076,
        "lng": -77.0723,
        "attending": 0,
        "accepted": 0,
        "rate": 12
    },
    {
        "id": "2064",
        "name": "Grand Valley State University",
        "city": "Allendale",
        "state": "Michigan",
        "lat": 42.9634,
        "lng": -85.8881,
        "attending": 5,
        "accepted": 57,
        "rate": 90
    },
    {
        "id": "2066",
        "name": "Carnegie Mellon University",
        "city": "Pittsburgh",
        "state": "Pennsylvania",
        "lat": 40.4432,
        "lng": -79.9428,
        "attending": 5,
        "accepted": 8,
        "rate": 11
    },
    {
        "id": "2067",
        "name": "Missouri University of Science and Technology",
        "city": "Rolla",
        "state": "Missouri",
        "lat": 37.9544,
        "lng": -91.7734,
        "attending": 1,
        "accepted": 19,
        "rate": 81
    },
    {
        "id": "2068",
        "name": "Southern New Hampshire University",
        "city": "Manchester",
        "state": "New Hampshire",
        "lat": 43.0377,
        "lng": -71.4507,
        "attending": 2,
        "accepted": 3,
        "rate": 92
    },
    {
        "id": "2069",
        "name": "The University of Texas at Austin",
        "city": "Austin",
        "state": "Texas",
        "lat": 30.2849,
        "lng": -97.7341,
        "attending": 10,
        "accepted": 25,
        "rate": 29
    },
    {
        "id": "2071",
        "name": "Northern Illinois University",
        "city": "DeKalb",
        "state": "Illinois",
        "lat": 41.9351,
        "lng": -88.7736,
        "attending": 26,
        "accepted": 323,
        "rate": 59
    },
    {
        "id": "2072",
        "name": "Utah State University",
        "city": "Logan",
        "state": "Utah",
        "lat": 41.7452,
        "lng": -111.8097,
        "attending": 1,
        "accepted": 3,
        "rate": 91
    },
    {
        "id": "2073",
        "name": "Alaska Pacific University",
        "city": "Anchorage",
        "state": "Alaska",
        "lat": 61.1913,
        "lng": -149.8086,
        "attending": 0,
        "accepted": 1,
        "rate": 90
    },
    {
        "id": "2075",
        "name": "Adelphi University",
        "city": "Garden City",
        "state": "New York",
        "lat": 40.7196,
        "lng": -73.6521,
        "attending": 0,
        "accepted": 2,
        "rate": 77
    },
    {
        "id": "2076",
        "name": "University of California-Santa Cruz",
        "city": "Santa Cruz",
        "state": "California",
        "lat": 36.9914,
        "lng": -122.0609,
        "attending": 0,
        "accepted": 6,
        "rate": 47
    },
    {
        "id": "2077",
        "name": "Kennesaw State University",
        "city": "Kennesaw",
        "state": "Georgia",
        "lat": 34.0379,
        "lng": -84.5810,
        "attending": 0,
        "accepted": 2,
        "rate": 62
    },
    {
        "id": "2078",
        "name": "Temple University",
        "city": "Philadelphia",
        "state": "Pennsylvania",
        "lat": 39.9812,
        "lng": -75.1554,
        "attending": 1,
        "accepted": 15,
        "rate": 79
    },
    {
        "id": "2079",
        "name": "New York University",
        "city": "New York",
        "state": "New York",
        "lat": 40.7295,
        "lng": -73.9965,
        "attending": 5,
        "accepted": 24,
        "rate": 8
    },
    {
        "id": "2081",
        "name": "University of California-Irvine",
        "city": "Irvine",
        "state": "California",
        "lat": 33.6405,
        "lng": -117.8443,
        "attending": 1,
        "accepted": 17,
        "rate": 21
    },
    {
        "id": "2082",
        "name": "Dominican University of California",
        "city": "San Rafael",
        "state": "California",
        "lat": 37.9735,
        "lng": -122.5168,
        "attending": 0,
        "accepted": 2,
        "rate": 86
    },
    {
        "id": "2085",
        "name": "University of Massachusetts-Boston",
        "city": "Boston",
        "state": "Massachusetts",
        "lat": 42.3134,
        "lng": -71.0384,
        "attending": 0,
        "accepted": 3,
        "rate": 78
    },
    {
        "id": "2086",
        "name": "Chapman University",
        "city": "Orange",
        "state": "California",
        "lat": 33.7928,
        "lng": -117.8513,
        "attending": 0,
        "accepted": 4,
        "rate": 72
    },
    {
        "id": "2087",
        "name": "Saint Cloud State University",
        "city": "St. Cloud",
        "state": "Minnesota",
        "lat": 45.5539,
        "lng": -94.1524,
        "attending": 1,
        "accepted": 1,
        "rate": 95
    },
    {
        "id": "2088",
        "name": "Full Sail University",
        "city": "Winter Park",
        "state": "Florida",
        "lat": 28.5966,
        "lng": -81.3039,
        "attending": 1,
        "accepted": 1,
        "rate": 100
    },
    {
        "id": "2089",
        "name": "Texas Southern University",
        "city": "Houston",
        "state": "Texas",
        "lat": 29.7222,
        "lng": -95.3622,
        "attending": 0,
        "accepted": 2,
        "rate": 63
    },
    {
        "id": "2090",
        "name": "Florida Gulf Coast University",
        "city": "Fort Myers",
        "state": "Florida",
        "lat": 26.4636,
        "lng": -81.7725,
        "attending": 1,
        "accepted": 10,
        "rate": 74
    },
    {
        "id": "2091",
        "name": "New Jersey Institute of Technology",
        "city": "Newark",
        "state": "New Jersey",
        "lat": 40.7420,
        "lng": -74.1791,
        "attending": 1,
        "accepted": 5,
        "rate": 66
    },
    {
        "id": "2093",
        "name": "University of New Hampshire-Main Campus",
        "city": "Durham",
        "state": "New Hampshire",
        "lat": 43.1389,
        "lng": -70.9370,
        "attending": 0,
        "accepted": 2,
        "rate": 87
    },
    {
        "id": "2095",
        "name": "Boston College",
        "city": "Chestnut Hill",
        "state": "Massachusetts",
        "lat": 42.3355,
        "lng": -71.1685,
        "attending": 6,
        "accepted": 13,
        "rate": 15
    },
    {
        "id": "2096",
        "name": "University of Missouri-Columbia",
        "city": "Columbia",
        "state": "Missouri",
        "lat": 38.9404,
        "lng": -92.3277,
        "attending": 47,
        "accepted": 281,
        "rate": 79
    },
    {
        "id": "2097",
        "name": "Idaho State University",
        "city": "Pocatello",
        "state": "Idaho",
        "lat": 42.8617,
        "lng": -112.4346,
        "attending": 0,
        "accepted": 1,
        "rate": 100
    },
    {
        "id": "2098",
        "name": "State University of New York at New Paltz",
        "city": "New Paltz",
        "state": "New York",
        "lat": 41.7380,
        "lng": -74.0848,
        "attending": 0,
        "accepted": 1,
        "rate": 58
    },
    {
        "id": "2099",
        "name": "University of Maine",
        "city": "Orono",
        "state": "Maine",
        "lat": 44.9016,
        "lng": -68.6687,
        "attending": 0,
        "accepted": 5,
        "rate": 94
    },
    {
        "id": "2101",
        "name": "Nova Southeastern University",
        "city": "Fort Lauderdale",
        "state": "Florida",
        "lat": 26.0792,
        "lng": -80.2435,
        "attending": 5,
        "accepted": 27,
        "rate": 93
    },
    {
        "id": "2103",
        "name": "The University of West Florida",
        "city": "Pensacola",
        "state": "Florida",
        "lat": 30.5487,
        "lng": -87.2185,
        "attending": 0,
        "accepted": 3,
        "rate": 48
    },
    {
        "id": "2109",
        "name": "University of Tulsa",
        "city": "Tulsa",
        "state": "Oklahoma",
        "lat": 36.1512,
        "lng": -95.9460,
        "attending": 0,
        "accepted": 5,
        "rate": 78
    },
    {
        "id": "2110",
        "name": "University of Nebraska at Omaha",
        "city": "Omaha",
        "state": "Nebraska",
        "lat": 41.2585,
        "lng": -96.0108,
        "attending": 2,
        "accepted": 4,
        "rate": 86
    },
    {
        "id": "2111",
        "name": "SUNY at Binghamton",
        "city": "Binghamton",
        "state": "New York",
        "lat": 42.0893,
        "lng": -75.9697,
        "attending": 1,
        "accepted": 7,
        "rate": 41
    },
    {
        "id": "2112",
        "name": "University of Massachusetts-Amherst",
        "city": "Amherst",
        "state": "Massachusetts",
        "lat": 42.3868,
        "lng": -72.5301,
        "attending": 1,
        "accepted": 29,
        "rate": 63
    },
    {
        "id": "2114",
        "name": "University of Wyoming",
        "city": "Laramie",
        "state": "Wyoming",
        "lat": 41.3148,
        "lng": -105.5805,
        "attending": 0,
        "accepted": 4,
        "rate": 96
    },
    {
        "id": "2115",
        "name": "The University of Tennessee-Knoxville",
        "city": "Knoxville",
        "state": "Tennessee",
        "lat": 35.9544,
        "lng": -83.9295,
        "attending": 17,
        "accepted": 72,
        "rate": 68
    },
    {
        "id": "2119",
        "name": "Harvard University",
        "city": "Cambridge",
        "state": "Massachusetts",
        "lat": 42.3770,
        "lng": -71.1167,
        "attending": 3,
        "accepted": 4,
        "rate": 3
    },
    {
        "id": "2120",
        "name": "Virginia Commonwealth University",
        "city": "Richmond",
        "state": "Virginia",
        "lat": 37.5483,
        "lng": -77.4527,
        "attending": 0,
        "accepted": 9,
        "rate": 91
    },
    {
        "id": "2122",
        "name": "California Polytechnic State University-San Luis Obispo",
        "city": "San Luis Obispo",
        "state": "California",
        "lat": 35.3050,
        "lng": -120.6625,
        "attending": 0,
        "accepted": 4,
        "rate": 30
    },
    {
        "id": "2123",
        "name": "University of South Florida-Main Campus",
        "city": "Tampa",
        "state": "Florida",
        "lat": 28.0587,
        "lng": -82.4139,
        "attending": 9,
        "accepted": 46,
        "rate": 44
    },
    {
        "id": "2126",
        "name": "University of Delaware",
        "city": "Newark",
        "state": "Delaware",
        "lat": 39.6780,
        "lng": -75.7506,
        "attending": 0,
        "accepted": 4,
        "rate": 74
    },
    {
        "id": "2127",
        "name": "Clemson University",
        "city": "Clemson",
        "state": "South Carolina",
        "lat": 34.6751,
        "lng": -82.8371,
        "attending": 0,
        "accepted": 21,
        "rate": 43
    },
    {
        "id": "2128",
        "name": "University of Vermont",
        "city": "Burlington",
        "state": "Vermont",
        "lat": 44.4747,
        "lng": -73.1967,
        "attending": 0,
        "accepted": 9,
        "rate": 59
    },
    {
        "id": "2129",
        "name": "Duquesne University",
        "city": "Pittsburgh",
        "state": "Pennsylvania",
        "lat": 40.4357,
        "lng": -79.9912,
        "attending": 0,
        "accepted": 2,
        "rate": 84
    },
    {
        "id": "2130",
        "name": "University of Oklahoma-Norman Campus",
        "city": "Norman",
        "state": "Oklahoma",
        "lat": 35.2059,
        "lng": -97.4457,
        "attending": 1,
        "accepted": 12,
        "rate": 72
    },
    {
        "id": "2132",
        "name": "Hofstra University",
        "city": "Hempstead",
        "state": "New York",
        "lat": 40.7142,
        "lng": -73.6103,
        "attending": 1,
        "accepted": 6,
        "rate": 69
    },
    {
        "id": "2133",
        "name": "University of Houston",
        "city": "Houston",
        "state": "Texas",
        "lat": 29.7199,
        "lng": -95.3422,
        "attending": 2,
        "accepted": 9,
        "rate": 66
    },
    {
        "id": "2135",
        "name": "University of Colorado Boulder",
        "city": "Boulder",
        "state": "Colorado",
        "lat": 40.0076,
        "lng": -105.2659,
        "attending": 13,
        "accepted": 155,
        "rate": 80
    },
    {
        "id": "2137",
        "name": "University of Utah",
        "city": "Salt Lake City",
        "state": "Utah",
        "lat": 40.7649,
        "lng": -111.8421,
        "attending": 4,
        "accepted": 23,
        "rate": 89
    },
    {
        "id": "2140",
        "name": "Boise State University",
        "city": "Boise",
        "state": "Idaho",
        "lat": 43.6029,
        "lng": -116.2002,
        "attending": 0,
        "accepted": 1,
        "rate": 83
    },
    {
        "id": "2143",
        "name": "University of Rhode Island",
        "city": "Kingston",
        "state": "Rhode Island",
        "lat": 41.4862,
        "lng": -71.5303,
        "attending": 0,
        "accepted": 1,
        "rate": 76
    },
    {
        "id": "2147",
        "name": "College of Southern Nevada",
        "city": "Las Vegas",
        "state": "Nevada",
        "lat": 36.1750,
        "lng": -115.1364,
        "attending": 0,
        "accepted": 1,
        "rate": 100
    },
    {
        "id": "2148",
        "name": "Liberty University",
        "city": "Lynchburg",
        "state": "Virginia",
        "lat": 37.3510,
        "lng": -79.1766,
        "attending": 0,
        "accepted": 2,
        "rate": 99
    },
    {
        "id": "2149",
        "name": "University of Memphis",
        "city": "Memphis",
        "state": "Tennessee",
        "lat": 35.1187,
        "lng": -89.9375,
        "attending": 0,
        "accepted": 3,
        "rate": 94
    },
    {
        "id": "2150",
        "name": "The University of Texas at Arlington",
        "city": "Arlington",
        "state": "Texas",
        "lat": 32.7305,
        "lng": -97.1139,
        "attending": 1,
        "accepted": 4,
        "rate": 93
    },
    {
        "id": "2151",
        "name": "University of Nevada-Las Vegas",
        "city": "Las Vegas",
        "state": "Nevada",
        "lat": 36.1075,
        "lng": -115.1437,
        "attending": 1,
        "accepted": 7,
        "rate": 85
    },
    {
        "id": "2152",
        "name": "University of Maryland-Baltimore County",
        "city": "Baltimore",
        "state": "Maryland",
        "lat": 39.2555,
        "lng": -76.7111,
        "attending": 0,
        "accepted": 2,
        "rate": 81
    },
    {
        "id": "2154",
        "name": "University of Cincinnati-Main Campus",
        "city": "Cincinnati",
        "state": "Ohio",
        "lat": 39.1329,
        "lng": -84.5150,
        "attending": 5,
        "accepted": 50,
        "rate": 86
    },
    {
        "id": "2155",
        "name": "Northern Kentucky University",
        "city": "Highland Heights",
        "state": "Kentucky",
        "lat": 39.0302,
        "lng": -84.4646,
        "attending": 1,
        "accepted": 2,
        "rate": 86
    },
    {
        "id": "2156",
        "name": "University of Wisconsin-Milwaukee",
        "city": "Milwaukee",
        "state": "Wisconsin",
        "lat": 43.0783,
        "lng": -87.8819,
        "attending": 7,
        "accepted": 46,
        "rate": 95
    },
    {
        "id": "2157",
        "name": "Northern Arizona University",
        "city": "Flagstaff",
        "state": "Arizona",
        "lat": 35.1887,
        "lng": -111.6542,
        "attending": 1,
        "accepted": 5,
        "rate": 80
    },
    {
        "id": "2159",
        "name": "Utah Valley University",
        "city": "Orem",
        "state": "Utah",
        "lat": 40.2811,
        "lng": -111.7208,
        "attending": 0,
        "accepted": 1,
        "rate": 100
    },
    {
        "id": "2160",
        "name": "University of San Francisco",
        "city": "San Francisco",
        "state": "California",
        "lat": 37.7766,
        "lng": -122.4508,
        "attending": 3,
        "accepted": 16,
        "rate": 71
    },
    {
        "id": "2161",
        "name": "The University of Alabama",
        "city": "Tuscaloosa",
        "state": "Alabama",
        "lat": 33.2140,
        "lng": -87.5391,
        "attending": 12,
        "accepted": 107,
        "rate": 80
    },
    {
        "id": "2163",
        "name": "Syracuse University",
        "city": "Syracuse",
        "state": "New York",
        "lat": 43.0392,
        "lng": -76.1351,
        "attending": 0,
        "accepted": 19,
        "rate": 52
    },
    {
        "id": "2172",
        "name": "University of Illinois at Urbana-Champaign",
        "city": "Champaign",
        "state": "Illinois",
        "lat": 40.1020,
        "lng": -88.2272,
        "attending": 389,
        "accepted": 795,
        "rate": 45
    },
    {
        "id": "2173",
        "name": "Indiana Wesleyan University-Marion",
        "city": "Marion",
        "state": "Indiana",
        "lat": 40.5284,
        "lng": -85.6591,
        "attending": 1,
        "accepted": 5,
        "rate": 87
    },
    {
        "id": "2175",
        "name": "Western Washington University",
        "city": "Bellingham",
        "state": "Washington",
        "lat": 48.7343,
        "lng": -122.4866,
        "attending": 1,
        "accepted": 1,
        "rate": 96
    },
    {
        "id": "2177",
        "name": "Fordham University",
        "city": "Bronx",
        "state": "New York",
        "lat": 40.8620,
        "lng": -73.8856,
        "attending": 1,
        "accepted": 24,
        "rate": 54
    },
    {
        "id": "2179",
        "name": "Wayne State University",
        "city": "Detroit",
        "state": "Michigan",
        "lat": 42.3552,
        "lng": -83.0673,
        "attending": 0,
        "accepted": 4,
        "rate": 75
    },
    {
        "id": "2181",
        "name": "South Dakota State University",
        "city": "Brookings",
        "state": "South Dakota",
        "lat": 44.3184,
        "lng": -96.7836,
        "attending": 0,
        "accepted": 3,
        "rate": 86
    },
    {
        "id": "2182",
        "name": "Florida State University",
        "city": "Tallahassee",
        "state": "Florida",
        "lat": 30.4419,
        "lng": -84.2985,
        "attending": 5,
        "accepted": 25,
        "rate": 25
    },
    {
        "id": "2183",
        "name": "University of Connecticut - Storrs",
        "city": "Storrs",
        "state": "Connecticut",
        "lat": 41.8077,
        "lng": -72.2540,
        "attending": 1,
        "accepted": 21,
        "rate": 55
    },
    {
        "id": "2185",
        "name": "Montana State University",
        "city": "Bozeman",
        "state": "Montana",
        "lat": 45.6674,
        "lng": -111.0546,
        "attending": 3,
        "accepted": 10,
        "rate": 73
    },
    {
        "id": "2186",
        "name": "Santa Clara University",
        "city": "Santa Clara",
        "state": "California",
        "lat": 37.3489,
        "lng": -121.9367,
        "attending": 0,
        "accepted": 2,
        "rate": 42
    },
    {
        "id": "2187",
        "name": "University of California-Berkeley",
        "city": "Berkeley",
        "state": "California",
        "lat": 37.8715,
        "lng": -122.2730,
        "attending": 7,
        "accepted": 15,
        "rate": 11
    },
    {
        "id": "2188",
        "name": "Central Michigan University",
        "city": "Mount Pleasant",
        "state": "Michigan",
        "lat": 43.5873,
        "lng": -84.7747,
        "attending": 6,
        "accepted": 26,
        "rate": 79
    },
    {
        "id": "2189",
        "name": "Southern Methodist University",
        "city": "Dallas",
        "state": "Texas",
        "lat": 32.8412,
        "lng": -96.7845,
        "attending": 0,
        "accepted": 5,
        "rate": 52
    },
    {
        "id": "2190",
        "name": "Purdue University-Main Campus",
        "city": "West Lafayette",
        "state": "Indiana",
        "lat": 40.4237,
        "lng": -86.9212,
        "attending": 131,
        "accepted": 500,
        "rate": 53
    },
    {
        "id": "2192",
        "name": "University of Akron Main Campus",
        "city": "Akron",
        "state": "Ohio",
        "lat": 41.0759,
        "lng": -81.5126,
        "attending": 0,
        "accepted": 5,
        "rate": 83
    },
    {
        "id": "2193",
        "name": "American University",
        "city": "Washington",
        "state": "District of Columbia",
        "lat": 38.9370,
        "lng": -77.0863,
        "attending": 0,
        "accepted": 9,
        "rate": 41
    },
    {
        "id": "2194",
        "name": "DePaul University",
        "city": "Chicago",
        "state": "Illinois",
        "lat": 41.9247,
        "lng": -87.6545,
        "attending": 47,
        "accepted": 343,
        "rate": 70
    },
    {
        "id": "2195",
        "name": "Illinois Institute of Technology",
        "city": "Chicago",
        "state": "Illinois",
        "lat": 41.8349,
        "lng": -87.6270,
        "attending": 6,
        "accepted": 92,
        "rate": 61
    },
    {
        "id": "2196",
        "name": "Brigham Young University-Idaho",
        "city": "Rexburg",
        "state": "Idaho",
        "lat": 43.8138,
        "lng": -111.7826,
        "attending": 0,
        "accepted": 3,
        "rate": 96
    },
    {
        "id": "2197",
        "name": "Michigan State University",
        "city": "East Lansing",
        "state": "Michigan",
        "lat": 42.7018,
        "lng": -84.4822,
        "attending": 39,
        "accepted": 428,
        "rate": 88
    },
    {
        "id": "2198",
        "name": "University of Michigan-Ann Arbor",
        "city": "Ann Arbor",
        "state": "Michigan",
        "lat": 42.2780,
        "lng": -83.7382,
        "attending": 20,
        "accepted": 50,
        "rate": 18
    },
    {
        "id": "2205",
        "name": "Oakland University",
        "city": "Rochester",
        "state": "Michigan",
        "lat": 42.6685,
        "lng": -83.2134,
        "attending": 0,
        "accepted": 5,
        "rate": 92
    },
    {
        "id": "2206",
        "name": "San Jose State University",
        "city": "San Jose",
        "state": "California",
        "lat": 37.3352,
        "lng": -121.8811,
        "attending": 1,
        "accepted": 3,
        "rate": 77
    },
    {
        "id": "2207",
        "name": "Iowa State University",
        "city": "Ames",
        "state": "Iowa",
        "lat": 42.0266,
        "lng": -93.6465,
        "attending": 80,
        "accepted": 383,
        "rate": 90
    },
    {
        "id": "2208",
        "name": "University of South Alabama",
        "city": "Mobile",
        "state": "Alabama",
        "lat": 30.6954,
        "lng": -88.1783,
        "attending": 0,
        "accepted": 3,
        "rate": 66
    },
    {
        "id": "2211",
        "name": "Kansas State University",
        "city": "Manhattan",
        "state": "Kansas",
        "lat": 39.1916,
        "lng": -96.5817,
        "attending": 2,
        "accepted": 21,
        "rate": 96
    },
    {
        "id": "2212",
        "name": "Colorado State University-Fort Collins",
        "city": "Fort Collins",
        "state": "Colorado",
        "lat": 40.5734,
        "lng": -105.0865,
        "attending": 6,
        "accepted": 54,
        "rate": 91
    },
    {
        "id": "2213",
        "name": "Western Michigan University",
        "city": "Kalamazoo",
        "state": "Michigan",
        "lat": 42.2831,
        "lng": -85.6139,
        "attending": 26,
        "accepted": 155,
        "rate": 83
    },
    {
        "id": "2214",
        "name": "Cleveland State University",
        "city": "Cleveland",
        "state": "Ohio",
        "lat": 41.5023,
        "lng": -81.6749,
        "attending": 1,
        "accepted": 5,
        "rate": 85
    },
    {
        "id": "2215",
        "name": "University of North Dakota",
        "city": "Grand Forks",
        "state": "North Dakota",
        "lat": 47.9229,
        "lng": -97.0739,
        "attending": 1,
        "accepted": 11,
        "rate": 83
    },
    {
        "id": "2216",
        "name": "Western Illinois University",
        "city": "Macomb",
        "state": "Illinois",
        "lat": 40.4705,
        "lng": -90.6865,
        "attending": 6,
        "accepted": 37,
        "rate": 74
    },
    {
        "id": "2219",
        "name": "Saint Louis University",
        "city": "St. Louis",
        "state": "Missouri",
        "lat": 38.6360,
        "lng": -90.2330,
        "attending": 21,
        "accepted": 158,
        "rate": 73
    },
    {
        "id": "2222",
        "name": "Soka University of America",
        "city": "Aliso Viejo",
        "state": "California",
        "lat": 33.5539,
        "lng": -117.7348,
        "attending": 0,
        "accepted": 0,
        "rate": 53
    },
    {
        "id": "2224",
        "name": "Texas Christian University",
        "city": "Fort Worth",
        "state": "Texas",
        "lat": 32.7093,
        "lng": -97.3615,
        "attending": 0,
        "accepted": 1,
        "rate": 56
    },
    {
        "id": "2225",
        "name": "Appalachian State University",
        "city": "Boone",
        "state": "North Carolina",
        "lat": 36.2132,
        "lng": -81.6811,
        "attending": 1,
        "accepted": 9,
        "rate": 83
    },
    {
        "id": "2228",
        "name": "University of Washington-Seattle Campus",
        "city": "Seattle",
        "state": "Washington",
        "lat": 47.6553,
        "lng": -122.3035,
        "attending": 5,
        "accepted": 46,
        "rate": 48
    },
    {
        "id": "2231",
        "name": "Vanderbilt University",
        "city": "Nashville",
        "state": "Tennessee",
        "lat": 36.1447,
        "lng": -86.8027,
        "attending": 3,
        "accepted": 10,
        "rate": 6
    },
    {
        "id": "2232",
        "name": "University of Southern California",
        "city": "Los Angeles",
        "state": "California",
        "lat": 34.0224,
        "lng": -118.2851,
        "attending": 8,
        "accepted": 17,
        "rate": 12
    },
    {
        "id": "2233",
        "name": "Florida Institute of Technology",
        "city": "Melbourne",
        "state": "Florida",
        "lat": 28.0673,
        "lng": -80.6225,
        "attending": 2,
        "accepted": 16,
        "rate": 64
    },
    {
        "id": "2235",
        "name": "Northwestern University",
        "city": "Evanston",
        "state": "Illinois",
        "lat": 42.0565,
        "lng": -87.6753,
        "attending": 16,
        "accepted": 23,
        "rate": 7
    },
    {
        "id": "2236",
        "name": "Wichita State University",
        "city": "Wichita",
        "state": "Kansas",
        "lat": 37.7191,
        "lng": -97.2931,
        "attending": 0,
        "accepted": 4,
        "rate": 95
    },
    {
        "id": "2237",
        "name": "North Dakota State University-Main Campus",
        "city": "Fargo",
        "state": "North Dakota",
        "lat": 46.8967,
        "lng": -96.8028,
        "attending": 0,
        "accepted": 1,
        "rate": 95
    },
    {
        "id": "2238",
        "name": "College of DuPage",
        "city": "Glen Ellyn",
        "state": "Illinois",
        "lat": 41.8485,
        "lng": -88.0772,
        "attending": 406,
        "accepted": 444,
        "rate": 100
    },
    {
        "id": "2239",
        "name": "The University of Texas at San Antonio",
        "city": "San Antonio",
        "state": "Texas",
        "lat": 29.5843,
        "lng": -98.6186,
        "attending": 0,
        "accepted": 4,
        "rate": 87
    },
    {
        "id": "2240",
        "name": "Wake Forest University",
        "city": "Winston-Salem",
        "state": "North Carolina",
        "lat": 36.1350,
        "lng": -80.2762,
        "attending": 1,
        "accepted": 2,
        "rate": 21
    },
    {
        "id": "2241",
        "name": "West Chester University of Pennsylvania",
        "city": "West Chester",
        "state": "Pennsylvania",
        "lat": 39.9536,
        "lng": -75.5979,
        "attending": 0,
        "accepted": 1,
        "rate": 89
    },
    {
        "id": "2242",
        "name": "Embry-Riddle Aeronautical University-Daytona Beach",
        "city": "Daytona Beach",
        "state": "Florida",
        "lat": 29.1891,
        "lng": -81.0494,
        "attending": 5,
        "accepted": 17,
        "rate": 65
    },
    {
        "id": "2243",
        "name": "University of Wisconsin-Oshkosh",
        "city": "Oshkosh",
        "state": "Wisconsin",
        "lat": 44.0267,
        "lng": -88.5526,
        "attending": 5,
        "accepted": 8,
        "rate": 89
    },
    {
        "id": "2245",
        "name": "University of Rochester",
        "city": "Rochester",
        "state": "New York",
        "lat": 43.1284,
        "lng": -77.6283,
        "attending": 3,
        "accepted": 21,
        "rate": 39
    },
    {
        "id": "2247",
        "name": "Rensselaer Polytechnic Institute",
        "city": "Troy",
        "state": "New York",
        "lat": 42.7299,
        "lng": -73.6767,
        "attending": 1,
        "accepted": 16,
        "rate": 65
    },
    {
        "id": "2248",
        "name": "Saint Leo University",
        "city": "Saint Leo",
        "state": "Florida",
        "lat": 28.3372,
        "lng": -82.2598,
        "attending": 0,
        "accepted": 1,
        "rate": 80
    },
    {
        "id": "2249",
        "name": "Rutgers University-New Brunswick",
        "city": "New Brunswick",
        "state": "New Jersey",
        "lat": 40.4991,
        "lng": -74.4449,
        "attending": 2,
        "accepted": 35,
        "rate": 66
    },
    {
        "id": "2252",
        "name": "University of Alabama at Birmingham",
        "city": "Birmingham",
        "state": "Alabama",
        "lat": 33.5005,
        "lng": -86.8080,
        "attending": 0,
        "accepted": 11,
        "rate": 87
    },
    {
        "id": "2255",
        "name": "Brandeis University",
        "city": "Waltham",
        "state": "Massachusetts",
        "lat": 42.3656,
        "lng": -71.2588,
        "attending": 1,
        "accepted": 7,
        "rate": 39
    },
    {
        "id": "2256",
        "name": "Stanford University",
        "city": "Stanford",
        "state": "California",
        "lat": 37.4275,
        "lng": -122.1697,
        "attending": 1,
        "accepted": 1,
        "rate": 4
    },
    {
        "id": "2258",
        "name": "Brown University",
        "city": "Providence",
        "state": "Rhode Island",
        "lat": 41.8268,
        "lng": -71.4025,
        "attending": 3,
        "accepted": 3,
        "rate": 5
    },
    {
        "id": "2259",
        "name": "University of Wisconsin-Madison",
        "city": "Madison",
        "state": "Wisconsin",
        "lat": 43.0766,
        "lng": -89.4125,
        "attending": 54,
        "accepted": 312,
        "rate": 49
    },
    {
        "id": "2260",
        "name": "Minnesota State University-Mankato",
        "city": "Mankato",
        "state": "Minnesota",
        "lat": 44.1481,
        "lng": -94.0016,
        "attending": 0,
        "accepted": 1,
        "rate": 69
    },
    {
        "id": "2261",
        "name": "Ferris State University",
        "city": "Big Rapids",
        "state": "Michigan",
        "lat": 43.6841,
        "lng": -85.4855,
        "attending": 2,
        "accepted": 4,
        "rate": 82
    },
    {
        "id": "2262",
        "name": "Boston University",
        "city": "Boston",
        "state": "Massachusetts",
        "lat": 42.3505,
        "lng": -71.1054,
        "attending": 3,
        "accepted": 27,
        "rate": 14
    },
    {
        "id": "2263",
        "name": "University of Kansas",
        "city": "Lawrence",
        "state": "Kansas",
        "lat": 38.9543,
        "lng": -95.2558,
        "attending": 16,
        "accepted": 113,
        "rate": 88
    },
    {
        "id": "2266",
        "name": "University of North Texas",
        "city": "Denton",
        "state": "Texas",
        "lat": 33.2075,
        "lng": -97.1526,
        "attending": 1,
        "accepted": 4,
        "rate": 79
    },
    {
        "id": "2268",
        "name": "Pace University",
        "city": "New York",
        "state": "New York",
        "lat": 40.7113,
        "lng": -74.0048,
        "attending": 0,
        "accepted": 4,
        "rate": 83
    },
    {
        "id": "2270",
        "name": "University of California-Santa Barbara",
        "city": "Santa Barbara",
        "state": "California",
        "lat": 34.4140,
        "lng": -119.8489,
        "attending": 0,
        "accepted": 16,
        "rate": 26
    },
    {
        "id": "2272",
        "name": "Arcadia University",
        "city": "Glenside",
        "state": "Pennsylvania",
        "lat": 40.0931,
        "lng": -75.1614,
        "attending": 1,
        "accepted": 4,
        "rate": 76
    },
    {
        "id": "2273",
        "name": "University of Nebraska-Lincoln",
        "city": "Lincoln",
        "state": "Nebraska",
        "lat": 40.8202,
        "lng": -96.7005,
        "attending": 13,
        "accepted": 89,
        "rate": 79
    },
    {
        "id": "2276",
        "name": "University of Pittsburgh-Pittsburgh Campus",
        "city": "Pittsburgh",
        "state": "Pennsylvania",
        "lat": 40.4442,
        "lng": -79.9608,
        "attending": 5,
        "accepted": 92,
        "rate": 49
    },
    {
        "id": "2279",
        "name": "North Carolina State University",
        "city": "Raleigh",
        "state": "North Carolina",
        "lat": 35.7847,
        "lng": -78.6821,
        "attending": 1,
        "accepted": 15,
        "rate": 47
    },
    {
        "id": "2281",
        "name": "University of Hawaii at Manoa",
        "city": "Honolulu",
        "state": "Hawaii",
        "lat": 21.2996,
        "lng": -157.8180,
        "attending": 1,
        "accepted": 2,
        "rate": 73
    },
    {
        "id": "2283",
        "name": "Sonoma State University",
        "city": "Rohnert Park",
        "state": "California",
        "lat": 38.3391,
        "lng": -122.6749,
        "attending": 1,
        "accepted": 1,
        "rate": 91
    },
    {
        "id": "2284",
        "name": "Johns Hopkins University",
        "city": "Baltimore",
        "state": "Maryland",
        "lat": 39.3299,
        "lng": -76.6205,
        "attending": 2,
        "accepted": 8,
        "rate": 7
    },
    {
        "id": "2285",
        "name": "Stevens Institute of Technology",
        "city": "Hoboken",
        "state": "New Jersey",
        "lat": 40.7448,
        "lng": -74.0256,
        "attending": 0,
        "accepted": 4,
        "rate": 46
    },
    {
        "id": "2287",
        "name": "Tennessee State University",
        "city": "Nashville",
        "state": "Tennessee",
        "lat": 36.1667,
        "lng": -86.8317,
        "attending": 0,
        "accepted": 1,
        "rate": 60
    },
    {
        "id": "2288",
        "name": "University of New Mexico-Main Campus",
        "city": "Albuquerque",
        "state": "New Mexico",
        "lat": 35.0844,
        "lng": -106.6200,
        "attending": 0,
        "accepted": 7,
        "rate": 96
    },
    {
        "id": "2289",
        "name": "San Diego State University",
        "city": "San Diego",
        "state": "California",
        "lat": 32.7758,
        "lng": -117.0719,
        "attending": 7,
        "accepted": 14,
        "rate": 39
    },
    {
        "id": "2291",
        "name": "University of Colorado Denver",
        "city": "Denver",
        "state": "Colorado",
        "lat": 39.7432,
        "lng": -105.0011,
        "attending": 0,
        "accepted": 8,
        "rate": 72
    },
    {
        "id": "2292",
        "name": "University of Denver",
        "city": "Denver",
        "state": "Colorado",
        "lat": 39.6766,
        "lng": -104.9619,
        "attending": 0,
        "accepted": 11,
        "rate": 78
    },
    {
        "id": "2293",
        "name": "Vincennes University",
        "city": "Vincennes",
        "state": "Indiana",
        "lat": 38.6797,
        "lng": -87.5244,
        "attending": 0,
        "accepted": 1,
        "rate": 100
    },
    {
        "id": "2294",
        "name": "University of Massachusetts-Lowell",
        "city": "Lowell",
        "state": "Massachusetts",
        "lat": 42.6424,
        "lng": -71.3146,
        "attending": 0,
        "accepted": 2,
        "rate": 85
    },
    {
        "id": "2295",
        "name": "William and Mary",
        "city": "Williamsburg",
        "state": "Virginia",
        "lat": 37.2706,
        "lng": -76.7126,
        "attending": 1,
        "accepted": 3,
        "rate": 33
    },
    {
        "id": "2301",
        "name": "Cornell University",
        "city": "Ithaca",
        "state": "New York",
        "lat": 42.4534,
        "lng": -76.4735,
        "attending": 7,
        "accepted": 13,
        "rate": 7
    },
    {
        "id": "2302",
        "name": "Missouri State University- Main Campus",
        "city": "Springfield",
        "state": "Missouri",
        "lat": 37.1982,
        "lng": -93.2842,
        "attending": 1,
        "accepted": 14,
        "rate": 93
    },
    {
        "id": "2306",
        "name": "Clarkson University",
        "city": "Potsdam",
        "state": "New York",
        "lat": 44.6635,
        "lng": -74.9991,
        "attending": 0,
        "accepted": 1,
        "rate": 78
    },
    {
        "id": "2307",
        "name": "University of St Thomas",
        "city": "St. Paul",
        "state": "Minnesota",
        "lat": 44.9407,
        "lng": -93.1908,
        "attending": 2,
        "accepted": 7,
        "rate": 77
    },
    {
        "id": "2309",
        "name": "Ball State University",
        "city": "Muncie",
        "state": "Indiana",
        "lat": 40.2017,
        "lng": -85.4075,
        "attending": 9,
        "accepted": 58,
        "rate": 69
    },
    {
        "id": "2310",
        "name": "University of California-Riverside",
        "city": "Riverside",
        "state": "California",
        "lat": 33.9737,
        "lng": -117.3281,
        "attending": 1,
        "accepted": 3,
        "rate": 69
    },
    {
        "id": "2311",
        "name": "Lehigh University",
        "city": "Bethlehem",
        "state": "Pennsylvania",
        "lat": 40.6054,
        "lng": -75.3773,
        "attending": 1,
        "accepted": 4,
        "rate": 37
    },
    {
        "id": "2312",
        "name": "University of Idaho",
        "city": "Moscow",
        "state": "Idaho",
        "lat": 46.7298,
        "lng": -117.0012,
        "attending": 0,
        "accepted": 2,
        "rate": 74
    },
    {
        "id": "2313",
        "name": "Texas Tech University",
        "city": "Lubbock",
        "state": "Texas",
        "lat": 33.5843,
        "lng": -101.8783,
        "attending": 1,
        "accepted": 3,
        "rate": 67
    },
    {
        "id": "2316",
        "name": "University of Kentucky",
        "city": "Lexington",
        "state": "Kentucky",
        "lat": 38.0307,
        "lng": -84.5040,
        "attending": 40,
        "accepted": 188,
        "rate": 94
    },
    {
        "id": "2318",
        "name": "Morgan State University",
        "city": "Baltimore",
        "state": "Maryland",
        "lat": 39.3444,
        "lng": -76.5843,
        "attending": 0,
        "accepted": 1,
        "rate": 85
    },
    {
        "id": "2320",
        "name": "Miami Dade College",
        "city": "Miami",
        "state": "Florida",
        "lat": 25.7778,
        "lng": -80.1904,
        "attending": 0,
        "accepted": 1,
        "rate": 100
    },
    {
        "id": "2321",
        "name": "Miami University-Oxford",
        "city": "Oxford",
        "state": "Ohio",
        "lat": 39.5103,
        "lng": -84.7430,
        "attending": 15,
        "accepted": 117,
        "rate": 87
    },
    {
        "id": "2322",
        "name": "Florida International University",
        "city": "Miami",
        "state": "Florida",
        "lat": 25.7562,
        "lng": -80.3756,
        "attending": 1,
        "accepted": 7,
        "rate": 64
    },
    {
        "id": "2324",
        "name": "California State University-Chico",
        "city": "Chico",
        "state": "California",
        "lat": 39.7285,
        "lng": -121.8375,
        "attending": 0,
        "accepted": 0,
        "rate": 95
    },
    {
        "id": "2327",
        "name": "Duke University",
        "city": "Durham",
        "state": "North Carolina",
        "lat": 36.0014,
        "lng": -78.9382,
        "attending": 1,
        "accepted": 3,
        "rate": 6
    },
    {
        "id": "2329",
        "name": "California State Polytechnic University-Pomona",
        "city": "Pomona",
        "state": "California",
        "lat": 34.0565,
        "lng": -117.8214,
        "attending": 0,
        "accepted": 1,
        "rate": 55
    },
    {
        "id": "2330",
        "name": "Bowling Green State University-Main Campus",
        "city": "Bowling Green",
        "state": "Ohio",
        "lat": 41.3781,
        "lng": -83.6397,
        "attending": 3,
        "accepted": 26,
        "rate": 79
    },
    {
        "id": "2335",
        "name": "University of Notre Dame",
        "city": "Notre Dame",
        "state": "Indiana",
        "lat": 41.7031,
        "lng": -86.2390,
        "attending": 1,
        "accepted": 4,
        "rate": 12
    },
    {
        "id": "2339",
        "name": "University of North Florida",
        "city": "Jacksonville",
        "state": "Florida",
        "lat": 30.2618,
        "lng": -81.5074,
        "attending": 1,
        "accepted": 5,
        "rate": 71
    },
    {
        "id": "2341",
        "name": "University of North Carolina at Chapel Hill",
        "city": "Chapel Hill",
        "state": "North Carolina",
        "lat": 35.9049,
        "lng": -79.0469,
        "attending": 1,
        "accepted": 5,
        "rate": 17
    },
    {
        "id": "2342",
        "name": "University of Pennsylvania",
        "city": "Philadelphia",
        "state": "Pennsylvania",
        "lat": 39.9522,
        "lng": -75.1932,
        "attending": 1,
        "accepted": 1,
        "rate": 6
    },
    {
        "id": "2343",
        "name": "University of Alabama in Huntsville",
        "city": "Huntsville",
        "state": "Alabama",
        "lat": 34.7228,
        "lng": -86.6401,
        "attending": 0,
        "accepted": 5,
        "rate": 78
    },
    {
        "id": "2345",
        "name": "Baylor University",
        "city": "Waco",
        "state": "Texas",
        "lat": 31.5469,
        "lng": -97.1211,
        "attending": 3,
        "accepted": 46,
        "rate": 45
    },
    {
        "id": "2346",
        "name": "Western Governors University",
        "city": "Salt Lake City",
        "state": "Utah",
        "lat": 40.6975,
        "lng": -111.8988,
        "attending": 1,
        "accepted": 1,
        "rate": 100
    },
    {
        "id": "2347",
        "name": "Pepperdine University",
        "city": "Malibu",
        "state": "California",
        "lat": 34.0416,
        "lng": -118.7096,
        "attending": 1,
        "accepted": 3,
        "rate": 49
    },
    {
        "id": "2349",
        "name": "University of Arkansas",
        "city": "Fayetteville",
        "state": "Arkansas",
        "lat": 36.0687,
        "lng": -94.1748,
        "attending": 0,
        "accepted": 2,
        "rate": 79
    },
    {
        "id": "2350",
        "name": "Drexel University",
        "city": "Philadelphia",
        "state": "Pennsylvania",
        "lat": 39.9566,
        "lng": -75.1899,
        "attending": 0,
        "accepted": 23,
        "rate": 80
    },
    {
        "id": "2352",
        "name": "Texas State University",
        "city": "San Marcos",
        "state": "Texas",
        "lat": 29.8884,
        "lng": -97.9384,
        "attending": 0,
        "accepted": 6,
        "rate": 88
    },
    {
        "id": "2354",
        "name": "Eastern Michigan University",
        "city": "Ypsilanti",
        "state": "Michigan",
        "lat": 42.2505,
        "lng": -83.6231,
        "attending": 1,
        "accepted": 16,
        "rate": 83
    },
    {
        "id": "2355",
        "name": "Benedictine University",
        "city": "Lisle",
        "state": "Illinois",
        "lat": 41.7850,
        "lng": -88.0772,
        "attending": 24,
        "accepted": 124,
        "rate": 80
    },
    {
        "id": "2360",
        "name": "University of Illinois at Chicago",
        "city": "Chicago",
        "state": "Illinois",
        "lat": 41.8719,
        "lng": -87.6493,
        "attending": 177,
        "accepted": 780,
        "rate": 79
    },
    {
        "id": "2361",
        "name": "Ohio University-Main Campus",
        "city": "Athens",
        "state": "Ohio",
        "lat": 39.3242,
        "lng": -82.0991,
        "attending": 1,
        "accepted": 17,
        "rate": 89
    },
    {
        "id": "2362",
        "name": "University of Oregon",
        "city": "Eugene",
        "state": "Oregon",
        "lat": 44.0454,
        "lng": -123.0716,
        "attending": 2,
        "accepted": 16,
        "rate": 86
    },
    {
        "id": "2363",
        "name": "Louisiana State University",
        "city": "Baton Rouge",
        "state": "Louisiana",
        "lat": 30.4133,
        "lng": -91.1800,
        "attending": 3,
        "accepted": 25,
        "rate": 71
    },
    {
        "id": "2365",
        "name": "Texas A & M University-Kingsville",
        "city": "Kingsville",
        "state": "Texas",
        "lat": 27.5256,
        "lng": -97.8816,
        "attending": 0,
        "accepted": 1,
        "rate": 93
    },
    {
        "id": "2366",
        "name": "Towson University",
        "city": "Towson",
        "state": "Maryland",
        "lat": 39.3926,
        "lng": -76.6047,
        "attending": 0,
        "accepted": 2,
        "rate": 79
    },
    {
        "id": "2369",
        "name": "Palm Beach State College",
        "city": "Lake Worth",
        "state": "Florida",
        "lat": 26.6133,
        "lng": -80.0906,
        "attending": 1,
        "accepted": 1,
        "rate": 100
    },
    {
        "id": "2370",
        "name": "Washington State University",
        "city": "Pullman",
        "state": "Washington",
        "lat": 46.7324,
        "lng": -117.1717,
        "attending": 0,
        "accepted": 9,
        "rate": 83
    },
    {
        "id": "2371",
        "name": "University of Iowa",
        "city": "Iowa City",
        "state": "Iowa",
        "lat": 41.6627,
        "lng": -91.5549,
        "attending": 118,
        "accepted": 653,
        "rate": 86
    },
    {
        "id": "2372",
        "name": "Oregon State University",
        "city": "Corvallis",
        "state": "Oregon",
        "lat": 44.5638,
        "lng": -123.2794,
        "attending": 0,
        "accepted": 12,
        "rate": 83
    },
    {
        "id": "2373",
        "name": "Worcester Polytechnic Institute",
        "city": "Worcester",
        "state": "Massachusetts",
        "lat": 42.2743,
        "lng": -71.8083,
        "attending": 0,
        "accepted": 1,
        "rate": 57
    },
    {
        "id": "2374",
        "name": "Oklahoma State University-Main Campus",
        "city": "Stillwater",
        "state": "Oklahoma",
        "lat": 36.1264,
        "lng": -97.0734,
        "attending": 1,
        "accepted": 8,
        "rate": 71
    },
    {
        "id": "2375",
        "name": "Youngstown State University",
        "city": "Youngstown",
        "state": "Ohio",
        "lat": 41.1065,
        "lng": -80.6482,
        "attending": 0,
        "accepted": 2,
        "rate": 78
    },
    {
        "id": "2376",
        "name": "University of Georgia",
        "city": "Athens",
        "state": "Georgia",
        "lat": 33.9480,
        "lng": -83.3773,
        "attending": 0,
        "accepted": 5,
        "rate": 43
    },
    {
        "id": "2377",
        "name": "Montclair State University",
        "city": "Montclair",
        "state": "New Jersey",
        "lat": 40.8665,
        "lng": -74.1975,
        "attending": 0,
        "accepted": 3,
        "rate": 91
    },
    {
        "id": "2378",
        "name": "Massachusetts Institute of Technology",
        "city": "Cambridge",
        "state": "Massachusetts",
        "lat": 42.3601,
        "lng": -71.0942,
        "attending": 3,
        "accepted": 3,
        "rate": 4
    },
    {
        "id": "2382",
        "name": "Loyola Marymount University",
        "city": "Los Angeles",
        "state": "California",
        "lat": 33.9713,
        "lng": -118.4170,
        "attending": 2,
        "accepted": 8,
        "rate": 41
    },
    {
        "id": "2383",
        "name": "Tufts University",
        "city": "Medford",
        "state": "Massachusetts",
        "lat": 42.4085,
        "lng": -71.1183,
        "attending": 0,
        "accepted": 0,
        "rate": 10
    },
    {
        "id": "2384",
        "name": "Florida Atlantic University",
        "city": "Boca Raton",
        "state": "Florida",
        "lat": 26.3683,
        "lng": -80.1065,
        "attending": 4,
        "accepted": 19,
        "rate": 81
    },
    {
        "id": "2386",
        "name": "Old Dominion University",
        "city": "Norfolk",
        "state": "Virginia",
        "lat": 36.8857,
        "lng": -76.3059,
        "attending": 1,
        "accepted": 3,
        "rate": 95
    },
    {
        "id": "2388",
        "name": "North Carolina A & T State University",
        "city": "Greensboro",
        "state": "North Carolina",
        "lat": 36.0754,
        "lng": -79.7744,
        "attending": 4,
        "accepted": 6,
        "rate": 56
    },
    {
        "id": "2391",
        "name": "University of Florida",
        "city": "Gainesville",
        "state": "Florida",
        "lat": 29.6436,
        "lng": -82.3549,
        "attending": 4,
        "accepted": 29,
        "rate": 23
    },
    {
        "id": "2392",
        "name": "University of Arizona",
        "city": "Tucson",
        "state": "Arizona",
        "lat": 32.2319,
        "lng": -110.9501,
        "attending": 12,
        "accepted": 120,
        "rate": 87
    },
    {
        "id": "2394",
        "name": "Illinois State University",
        "city": "Normal",
        "state": "Illinois",
        "lat": 40.5100,
        "lng": -88.9918,
        "attending": 100,
        "accepted": 469,
        "rate": 86
    },
    {
        "id": "2395",
        "name": "University of Miami",
        "city": "Coral Gables",
        "state": "Florida",
        "lat": 25.7176,
        "lng": -80.2786,
        "attending": 3,
        "accepted": 11,
        "rate": 19
    },
    {
        "id": "2396",
        "name": "Loyola University Chicago",
        "city": "Chicago",
        "state": "Illinois",
        "lat": 42.0007,
        "lng": -87.6582,
        "attending": 74,
        "accepted": 680,
        "rate": 79
    },
    {
        "id": "2397",
        "name": "Georgia Southern University",
        "city": "Statesboro",
        "state": "Georgia",
        "lat": 32.4223,
        "lng": -81.7876,
        "attending": 0,
        "accepted": 2,
        "rate": 89
    },
    {
        "id": "2398",
        "name": "Aurora University",
        "city": "Aurora",
        "state": "Illinois",
        "lat": 41.7584,
        "lng": -88.3496,
        "attending": 7,
        "accepted": 51,
        "rate": 82
    },
    {
        "id": "2401",
        "name": "Barry University",
        "city": "Miami Shores",
        "state": "Florida",
        "lat": 25.8789,
        "lng": -80.1983,
        "attending": 0,
        "accepted": 4,
        "rate": 60
    },
    {
        "id": "2402",
        "name": "University of Minnesota-Twin Cities",
        "city": "Minneapolis",
        "state": "Minnesota",
        "lat": 44.9740,
        "lng": -93.2277,
        "attending": 25,
        "accepted": 294,
        "rate": 75
    },
    {
        "id": "2403",
        "name": "University of Northern Iowa",
        "city": "Cedar Falls",
        "state": "Iowa",
        "lat": 42.5113,
        "lng": -92.4632,
        "attending": 2,
        "accepted": 4,
        "rate": 95
    },
    {
        "id": "2404",
        "name": "Southern Illinois University-Carbondale",
        "city": "Carbondale",
        "state": "Illinois",
        "lat": 37.7126,
        "lng": -89.2198,
        "attending": 16,
        "accepted": 97,
        "rate": 91
    },
    {
        "id": "2405",
        "name": "California State University-Long Beach",
        "city": "Long Beach",
        "state": "California",
        "lat": 33.7838,
        "lng": -118.1141,
        "attending": 0,
        "accepted": 3,
        "rate": 40
    },
    {
        "id": "2406",
        "name": "Lynn University",
        "city": "Boca Raton",
        "state": "Florida",
        "lat": 26.3950,
        "lng": -80.1264,
        "attending": 1,
        "accepted": 3,
        "rate": 78
    },
    {
        "id": "2407",
        "name": "University of Central Florida",
        "city": "Orlando",
        "state": "Florida",
        "lat": 28.6024,
        "lng": -81.2001,
        "attending": 3,
        "accepted": 18,
        "rate": 41
    },
    {
        "id": "2408",
        "name": "Eastern Kentucky University",
        "city": "Richmond",
        "state": "Kentucky",
        "lat": 37.7314,
        "lng": -84.3013,
        "attending": 2,
        "accepted": 3,
        "rate": 64
    },
    {
        "id": "2409",
        "name": "Michigan Technological University",
        "city": "Houghton",
        "state": "Michigan",
        "lat": 47.1176,
        "lng": -88.5476,
        "attending": 2,
        "accepted": 24,
        "rate": 86
    },
    {
        "id": "2410",
        "name": "Saint Mary's University of Minnesota",
        "city": "Winona",
        "state": "Minnesota",
        "lat": 44.0475,
        "lng": -91.7001,
        "attending": 1,
        "accepted": 3,
        "rate": 84
    },
    {
        "id": "2412",
        "name": "San Francisco State University",
        "city": "San Francisco",
        "state": "California",
        "lat": 37.7241,
        "lng": -122.4799,
        "attending": 0,
        "accepted": 2,
        "rate": 93
    },
    {
        "id": "2414",
        "name": "George Washington University",
        "city": "Washington",
        "state": "District of Columbia",
        "lat": 38.8997,
        "lng": -77.0486,
        "attending": 5,
        "accepted": 17,
        "rate": 49
    },
    {
        "id": "2415",
        "name": "Indiana University - Indianapolis",
        "city": "Indianapolis",
        "state": "Indiana",
        "lat": 39.7739,
        "lng": -86.1763,
        "attending": 1,
        "accepted": 43,
        "rate": 83
    },
    {
        "id": "2416",
        "name": "University of Toledo",
        "city": "Toledo",
        "state": "Ohio",
        "lat": 41.6621,
        "lng": -83.6127,
        "attending": 2,
        "accepted": 25,
        "rate": 97
    },
    {
        "id": "2418",
        "name": "Middle Tennessee State University",
        "city": "Murfreesboro",
        "state": "Tennessee",
        "lat": 35.8456,
        "lng": -86.3682,
        "attending": 0,
        "accepted": 6,
        "rate": 72
    },
    {
        "id": "2419",
        "name": "San Francisco Bay University",
        "city": "Fremont",
        "state": "California",
        "lat": 37.4851,
        "lng": -121.9288,
        "attending": 0,
        "accepted": 1,
        "rate": 100
    },
    {
        "id": "2420",
        "name": "University of California-Davis",
        "city": "Davis",
        "state": "California",
        "lat": 38.5382,
        "lng": -121.7617,
        "attending": 5,
        "accepted": 24,
        "rate": 37
    },
    {
        "id": "2424",
        "name": "University of California-San Diego",
        "city": "La Jolla",
        "state": "California",
        "lat": 32.8801,
        "lng": -117.2340,
        "attending": 6,
        "accepted": 32,
        "rate": 24
    },
    {
        "id": "2425",
        "name": "Pennsylvania State University-Main Campus",
        "city": "University Park",
        "state": "Pennsylvania",
        "lat": 40.7982,
        "lng": -77.8599,
        "attending": 16,
        "accepted": 235,
        "rate": 55
    },
    {
        "id": "2428",
        "name": "Columbia University in the City of New York",
        "city": "New York",
        "state": "New York",
        "lat": 40.8075,
        "lng": -73.9626,
        "attending": 0,
        "accepted": 3,
        "rate": 4
    },
    {
        "id": "2430",
        "name": "Georgia Institute of Technology-Main Campus",
        "city": "Atlanta",
        "state": "Georgia",
        "lat": 33.7756,
        "lng": -84.3963,
        "attending": 7,
        "accepted": 26,
        "rate": 17
    },
    {
        "id": "2431",
        "name": "Emory University",
        "city": "Atlanta",
        "state": "Georgia",
        "lat": 33.7925,
        "lng": -84.3209,
        "attending": 6,
        "accepted": 14,
        "rate": 11
    },
    {
        "id": "2434",
        "name": "Anderson University",
        "city": "Anderson",
        "state": "South Carolina",
        "lat": 34.5165,
        "lng": -82.6360,
        "attending": 0,
        "accepted": 2,
        "rate": 65
    },
    {
        "id": "2435",
        "name": "Northeastern University",
        "city": "Boston",
        "state": "Massachusetts",
        "lat": 42.3398,
        "lng": -71.0892,
        "attending": 0,
        "accepted": 44,
        "rate": 7
    },
    {
        "id": "2437",
        "name": "Rutgers University-Newark",
        "city": "Newark",
        "state": "New Jersey",
        "lat": 40.7417,
        "lng": -74.1742,
        "attending": 0,
        "accepted": 6,
        "rate": 74
    },
    {
        "id": "2439",
        "name": "Texas A & M University-Corpus Christi",
        "city": "Corpus Christi",
        "state": "Texas",
        "lat": 27.7121,
        "lng": -97.3245,
        "attending": 0,
        "accepted": 1,
        "rate": 80
    },
    {
        "id": "2440",
        "name": "Indiana University-Bloomington",
        "city": "Bloomington",
        "state": "Indiana",
        "lat": 39.1766,
        "lng": -86.5130,
        "attending": 116,
        "accepted": 571,
        "rate": 82
    },
    {
        "id": "2444",
        "name": "East Carolina University",
        "city": "Greenville",
        "state": "North Carolina",
        "lat": 35.6069,
        "lng": -77.3665,
        "attending": 0,
        "accepted": 4,
        "rate": 92
    },
    {
        "id": "2445",
        "name": "Metropolitan State University of Denver",
        "city": "Denver",
        "state": "Colorado",
        "lat": 39.7431,
        "lng": -105.0028,
        "attending": 0,
        "accepted": 1,
        "rate": 89
    },
    {
        "id": "2446",
        "name": "University of Arkansas at Little Rock",
        "city": "Little Rock",
        "state": "Arkansas",
        "lat": 34.7214,
        "lng": -92.3385,
        "attending": 1,
        "accepted": 1,
        "rate": 61
    },
    {
        "id": "2447",
        "name": "Texas A & M University-College Station",
        "city": "College Station",
        "state": "Texas",
        "lat": 30.6187,
        "lng": -96.3365,
        "attending": 2,
        "accepted": 50,
        "rate": 63
    },
    {
        "id": "2448",
        "name": "University of Mississippi",
        "city": "University",
        "state": "Mississippi",
        "lat": 34.3662,
        "lng": -89.5379,
        "attending": 11,
        "accepted": 45,
        "rate": 97
    },
    {
        "id": "2451",
        "name": "University of Missouri-St Louis",
        "city": "St. Louis",
        "state": "Missouri",
        "lat": 38.7107,
        "lng": -90.3117,
        "attending": 0,
        "accepted": 5,
        "rate": 70
    },
    {
        "id": "2453",
        "name": "University of San Diego",
        "city": "San Diego",
        "state": "California",
        "lat": 32.7719,
        "lng": -117.1882,
        "attending": 1,
        "accepted": 4,
        "rate": 53
    },
    {
        "id": "2457",
        "name": "University of South Carolina-Columbia",
        "city": "Columbia",
        "state": "South Carolina",
        "lat": 33.9997,
        "lng": -81.0286,
        "attending": 9,
        "accepted": 50,
        "rate": 64
    },
    {
        "id": "2460",
        "name": "Brigham Young University-Provo",
        "city": "Provo",
        "state": "Utah",
        "lat": 40.2518,
        "lng": -111.6493,
        "attending": 6,
        "accepted": 8,
        "rate": 66
    },
    {
        "id": "2461",
        "name": "Auburn University",
        "city": "Auburn",
        "state": "Alabama",
        "lat": 32.5934,
        "lng": -85.4952,
        "attending": 2,
        "accepted": 27,
        "rate": 44
    },
    {
        "id": "2462",
        "name": "Kean University",
        "city": "Union",
        "state": "New Jersey",
        "lat": 40.6806,
        "lng": -74.2346,
        "attending": 0,
        "accepted": 1,
        "rate": 82
    },
    {
        "id": "2463",
        "name": "Washington University in St Louis",
        "city": "St. Louis",
        "state": "Missouri",
        "lat": 38.6488,
        "lng": -90.3108,
        "attending": 6,
        "accepted": 22,
        "rate": 11
    },
    {
        "id": "2464",
        "name": "Arizona State University-Tempe",
        "city": "Tempe",
        "state": "Arizona",
        "lat": 33.4242,
        "lng": -111.9281,
        "attending": 36,
        "accepted": 208,
        "rate": 90
    },
    {
        "id": "2466",
        "name": "The University of Texas at Dallas",
        "city": "Richardson",
        "state": "Texas",
        "lat": 32.9858,
        "lng": -96.7501,
        "attending": 1,
        "accepted": 32,
        "rate": 85
    },
    {
        "id": "2467",
        "name": "Case Western Reserve University",
        "city": "Cleveland",
        "state": "Ohio",
        "lat": 41.5043,
        "lng": -81.6084,
        "attending": 25,
        "accepted": 93,
        "rate": 27
    },
    {
        "id": "2468",
        "name": "California State University-Fullerton",
        "city": "Fullerton",
        "state": "California",
        "lat": 33.8823,
        "lng": -117.8851,
        "attending": 0,
        "accepted": 1,
        "rate": 67
    },
    {
        "id": "2469",
        "name": "University of North Carolina at Greensboro",
        "city": "Greensboro",
        "state": "North Carolina",
        "lat": 36.0682,
        "lng": -79.8082,
        "attending": 0,
        "accepted": 3,
        "rate": 91
    },
    {
        "id": "2470",
        "name": "Kent State University at Kent",
        "city": "Kent",
        "state": "Ohio",
        "lat": 41.1537,
        "lng": -81.3579,
        "attending": 2,
        "accepted": 8,
        "rate": 88
    },
    {
        "id": "2471",
        "name": "Western Kentucky University",
        "city": "Bowling Green",
        "state": "Kentucky",
        "lat": 36.9886,
        "lng": -86.4532,
        "attending": 5,
        "accepted": 10,
        "rate": 97
    },
    {
        "id": "2473",
        "name": "University of Dayton",
        "city": "Dayton",
        "state": "Ohio",
        "lat": 39.7402,
        "lng": -84.1792,
        "attending": 7,
        "accepted": 59,
        "rate": 74
    },
    {
        "id": "2476",
        "name": "University of Missouri-Kansas City",
        "city": "Kansas City",
        "state": "Missouri",
        "lat": 39.0347,
        "lng": -94.5772,
        "attending": 2,
        "accepted": 27,
        "rate": 69
    },
    {
        "id": "2478",
        "name": "James Madison University",
        "city": "Harrisonburg",
        "state": "Virginia",
        "lat": 38.4351,
        "lng": -78.8698,
        "attending": 0,
        "accepted": 8,
        "rate": 78
    },
    {
        "id": "2479",
        "name": "University of North Carolina at Charlotte",
        "city": "Charlotte",
        "state": "North Carolina",
        "lat": 35.3071,
        "lng": -80.7352,
        "attending": 2,
        "accepted": 8,
        "rate": 80
    },
    {
        "id": "2480",
        "name": "West Virginia University",
        "city": "Morgantown",
        "state": "West Virginia",
        "lat": 39.6361,
        "lng": -79.9559,
        "attending": 3,
        "accepted": 14,
        "rate": 90
    },
    {
        "id": "2481",
        "name": "University of Nevada-Reno",
        "city": "Reno",
        "state": "Nevada",
        "lat": 39.5443,
        "lng": -119.8160,
        "attending": 0,
        "accepted": 3,
        "rate": 86
    },
    {
        "id": "2482",
        "name": "Edgewood College",
        "city": "Madison",
        "state": "Wisconsin",
        "lat": 43.0583,
        "lng": -89.4215,
        "attending": 0,
        "accepted": 1,
        "rate": 95
    },
    {
        "id": "2483",
        "name": "The Ohio State University",
        "city": "Columbus",
        "state": "Ohio",
        "lat": 40.0142,
        "lng": -83.0309,
        "attending": 32,
        "accepted": 356,
        "rate": 53
    },
    {
        "id": "2484",
        "name": "Howard University",
        "city": "Washington",
        "state": "District of Columbia",
        "lat": 38.9227,
        "lng": -77.0194,
        "attending": 3,
        "accepted": 8,
        "rate": 53
    },
    {
        "id": "2488",
        "name": "Webster University",
        "city": "St. Louis",
        "state": "Missouri",
        "lat": 38.5888,
        "lng": -90.3475,
        "attending": 0,
        "accepted": 1,
        "rate": 56
    },
    {
        "id": "2489",
        "name": "Wright State University-Main Campus",
        "city": "Dayton",
        "state": "Ohio",
        "lat": 39.7828,
        "lng": -84.0625,
        "attending": 0,
        "accepted": 1,
        "rate": 95
    },
    {
        "id": "2490",
        "name": "University of Louisiana at Lafayette",
        "city": "Lafayette",
        "state": "Louisiana",
        "lat": 30.2117,
        "lng": -92.0198,
        "attending": 0,
        "accepted": 1,
        "rate": 74
    },
    {
        "id": "2491",
        "name": "University of Northern Colorado",
        "city": "Greeley",
        "state": "Colorado",
        "lat": 40.4049,
        "lng": -104.6929,
        "attending": 0,
        "accepted": 2,
        "rate": 78
    },
    {
        "id": "2492",
        "name": "Colorado School of Mines",
        "city": "Golden",
        "state": "Colorado",
        "lat": 39.7510,
        "lng": -105.2226,
        "attending": 3,
        "accepted": 4,
        "rate": 58
    },
    {
        "id": "2497",
        "name": "California Institute of Technology",
        "city": "Pasadena",
        "state": "California",
        "lat": 34.1377,
        "lng": -118.1253,
        "attending": 0,
        "accepted": 0,
        "rate": 3
    },
    {
        "id": "2498",
        "name": "Georgia State University",
        "city": "Atlanta",
        "state": "Georgia",
        "lat": 33.7531,
        "lng": -84.3853,
        "attending": 1,
        "accepted": 5,
        "rate": 61
    },
    {
        "id": "2499",
        "name": "Clark University",
        "city": "Worcester",
        "state": "Massachusetts",
        "lat": 42.2511,
        "lng": -71.8236,
        "attending": 0,
        "accepted": 2,
        "rate": 50
    },
    {
        "id": "2504",
        "name": "University of Chicago",
        "city": "Chicago",
        "state": "Illinois",
        "lat": 41.7886,
        "lng": -87.5987,
        "attending": 7,
        "accepted": 10,
        "rate": 5
    },
    {
        "id": "2505",
        "name": "Tulane University",
        "city": "New Orleans",
        "state": "Louisiana",
        "lat": 29.9404,
        "lng": -90.1203,
        "attending": 2,
        "accepted": 5,
        "rate": 11
    },
    {
        "id": "2507",
        "name": "Dartmouth College",
        "city": "Hanover",
        "state": "New Hampshire",
        "lat": 43.7044,
        "lng": -72.2887,
        "attending": 0,
        "accepted": 0,
        "rate": 6
    },
    {
        "id": "2508",
        "name": "Trevecca Nazarene University",
        "city": "Nashville",
        "state": "Tennessee",
        "lat": 36.1265,
        "lng": -86.7588,
        "attending": 0,
        "accepted": 1,
        "rate": 77
    },
    {
        "id": "2509",
        "name": "University of Maryland-College Park",
        "city": "College Park",
        "state": "Maryland",
        "lat": 38.9869,
        "lng": -76.9426,
        "attending": 4,
        "accepted": 60,
        "rate": 44
    },
    {
        "id": "2510",
        "name": "Mississippi State University",
        "city": "Mississippi State",
        "state": "Mississippi",
        "lat": 33.4542,
        "lng": -88.7904,
        "attending": 0,
        "accepted": 5,
        "rate": 70
    },
    {
        "id": "2511",
        "name": "Princeton University",
        "city": "Princeton",
        "state": "New Jersey",
        "lat": 40.3431,
        "lng": -74.6551,
        "attending": 1,
        "accepted": 2,
        "rate": 4
    },
    {
        "id": "2512",
        "name": "California State University-East Bay",
        "city": "Hayward",
        "state": "California",
        "lat": 37.6576,
        "lng": -122.0540,
        "attending": 0,
        "accepted": 0,
        "rate": 96
    },
    {
        "id": "2513",
        "name": "George Mason University",
        "city": "Fairfax",
        "state": "Virginia",
        "lat": 38.8315,
        "lng": -77.3117,
        "attending": 2,
        "accepted": 10,
        "rate": 90
    },
    {
        "id": "2514",
        "name": "Maryville University of Saint Louis",
        "city": "St. Louis",
        "state": "Missouri",
        "lat": 38.6437,
        "lng": -90.5033,
        "attending": 2,
        "accepted": 5,
        "rate": 88
    },
    {
        "id": "2518",
        "name": "University of Minnesota-Duluth",
        "city": "Duluth",
        "state": "Minnesota",
        "lat": 46.8177,
        "lng": -92.0838,
        "attending": 1,
        "accepted": 7,
        "rate": 79
    },
    {
        "id": "2520",
        "name": "The University of Montana",
        "city": "Missoula",
        "state": "Montana",
        "lat": 46.8593,
        "lng": -113.9840,
        "attending": 1,
        "accepted": 5,
        "rate": 94
    },
    {
        "id": "2521",
        "name": "Virginia Tech",
        "city": "Blacksburg",
        "state": "Virginia",
        "lat": 37.2284,
        "lng": -80.4234,
        "attending": 5,
        "accepted": 55,
        "rate": 57
    },
    {
        "id": "2522",
        "name": "University of Virginia-Main Campus",
        "city": "Charlottesville",
        "state": "Virginia",
        "lat": 38.0336,
        "lng": -78.5080,
        "attending": 2,
        "accepted": 9,
        "rate": 19
    },
    {
        "id": "2523",
        "name": "Yale University",
        "city": "New Haven",
        "state": "Connecticut",
        "lat": 41.3163,
        "lng": -72.9223,
        "attending": 1,
        "accepted": 2,
        "rate": 5
    },
    {
        "id": "2524",
        "name": "The University of Tennessee-Martin",
        "city": "Martin",
        "state": "Tennessee",
        "lat": 36.3429,
        "lng": -88.8553,
        "attending": 1,
        "accepted": 1,
        "rate": 88
    },
    {
        "id": "2527",
        "name": "Florida Agricultural and Mechanical University",
        "city": "Tallahassee",
        "state": "Florida",
        "lat": 30.4285,
        "lng": -84.2857,
        "attending": 0,
        "accepted": 2,
        "rate": 35
    },
    {
        "id": "2533",
        "name": "The University of Tennessee-Chattanooga",
        "city": "Chattanooga",
        "state": "Tennessee",
        "lat": 35.0478,
        "lng": -85.3021,
        "attending": 0,
        "accepted": 0,
        "rate": 83
    }
]