[
    { "id": "4412", "name": "Latter Day Saints Business College", "city": "Salt Lake City", "state": "Utah", "lat": 40.7686, "lng": -111.8926, "attending": 1, "accepted": 1, "rate": 100 },
    { "id": "C3934", "name": "American Public University - APU", "city": "Charles Town", "state": "West Virginia", "lat": 39.289, "lng": -77.8597, "attending": 1, "accepted": 1, "rate": 100 },
    { "id": "4014", "name": "Arapahoe Community College", "city": "Littleton", "state": "Colorado", "lat": 39.607505, "lng": -105.018631, "attending": 3, "accepted": 0, "rate": 100 },
    { "id": "4007", "name": "Arizona State University Campus Immersion", "city": "Tempe", "state": "Arizona", "lat": 33.417721, "lng": -111.934383, "attending": 6, "accepted": 9, "rate": 90 },
    { "id": "4457", "name": "ASU FIDM/Fashion Institute of Design & Merchandising, Los Angeles Campus", "city": "Los Angeles", "state": "California", "lat": 34.044209, "lng": -118.25993, "attending": 1, "accepted": 0, "rate": 89 },
    { "id": "1025", "name": "Augustana College", "city": "Rock Island", "state": "Illinois", "lat": 41.502365, "lng": -90.55057, "attending": 17, "accepted": 26, "rate": 68 },
    { "id": "1027", "name": "Aurora University", "city": "Aurora", "state": "Illinois", "lat": 41.753631, "lng": -88.349023, "attending": 9, "accepted": 10, "rate": 84 },
    { "id": "C4617", "name": "Ave Maria University", "city": "Ave Maria", "state": "Florida", "lat": 26.335983, "lng": -81.438945, "attending": 3, "accepted": 2, "rate": 44 },
    { "id": "6032", "name": "Baylor University", "city": "Waco", "state": "Texas", "lat": 31.546872, "lng": -97.121041, "attending": 2, "accepted": 1, "rate": 45 },
    { "id": "1059", "name": "Beloit College", "city": "Beloit", "state": "Wisconsin", "lat": 42.504022, "lng": -89.029285, "attending": 1, "accepted": 3, "rate": 67 },
    { "id": "1707", "name": "Benedictine University", "city": "Lisle", "state": "Illinois", "lat": 41.777569, "lng": -88.097307, "attending": 5, "accepted": 3, "rate": 80 },
    { "id": "6038", "name": "Bethel University, Minnesota", "city": "St. Paul", "state": "Minnesota", "lat": 45.057655, "lng": -93.161663, "attending": 1, "accepted": 1, "rate": 80 },
    { "id": "1065", "name": "Blackburn College", "city": "Carlinville", "state": "Illinois", "lat": 39.287896, "lng": -89.870241, "attending": 1, "accepted": 0, "rate": 65 },
    { "id": "1069", "name": "Bowling Green State University", "city": "Bowling Green", "state": "Ohio", "lat": 41.375513, "lng": -83.640896, "attending": 1, "accepted": 1, "rate": 79 },
    { "id": "1070", "name": "Bradley University", "city": "Peoria", "state": "Illinois", "lat": 40.696896, "lng": -89.616786, "attending": 7, "accepted": 20, "rate": 75 },
    { "id": "4019", "name": "Brigham Young University", "city": "Provo", "state": "Utah", "lat": 40.250851, "lng": -111.649281, "attending": 6, "accepted": 1, "rate": 67 },
    { "id": "4657", "name": "Brigham Young University - Idaho", "city": "Rexburg", "state": "Idaho", "lat": 43.818408, "lng": -111.782431, "attending": 1, "accepted": 1, "rate": 96 },
    { "id": "1073", "name": "Butler University", "city": "Indianapolis", "state": "Indiana", "lat": 39.8374, "lng": -86.172167, "attending": 3, "accepted": 4, "rate": 82 },
    { "id": "1095", "name": "Calvin University", "city": "Grand Rapids", "state": "Michigan", "lat": 42.929916, "lng": -85.587548, "attending": 2, "accepted": 1, "rate": 75 },
    { "id": "1101", "name": "Carroll University", "city": "Waukesha", "state": "Wisconsin", "lat": 43.004527, "lng": -88.228114, "attending": 3, "accepted": 9, "rate": 72 },
    { "id": "1103", "name": "Carthage College", "city": "Kenosha", "state": "Wisconsin", "lat": 42.622969, "lng": -87.820924, "attending": 3, "accepted": 17, "rate": 78 },
    { "id": "1105", "name": "Case Western Reserve University", "city": "Cleveland", "state": "Ohio", "lat": 41.507419, "lng": -81.609596, "attending": 1, "accepted": 4, "rate": 27 },
    { "id": "1151", "name": "Cedarville University", "city": "Cedarville", "state": "Ohio", "lat": 39.749237, "lng": -83.814692, "attending": 1, "accepted": 2, "rate": 60 },
    { "id": "6087", "name": "Central College", "city": "Pella", "state": "Iowa", "lat": 41.401539, "lng": -92.922199, "attending": 6, "accepted": 8, "rate": 70 },
    { "id": "1106", "name": "Central Michigan University", "city": "Mount Pleasant", "state": "Michigan", "lat": 43.591203, "lng": -84.77525, "attending": 1, "accepted": 5, "rate": 70 },
    { "id": "6130", "name": "Central Texas College", "city": "Killeen", "state": "Texas", "lat": 31.120516, "lng": -97.810827, "attending": 1, "accepted": 1, "rate": 100 },
    { "id": "4047", "name": "Chapman University", "city": "Orange", "state": "California", "lat": 33.79302, "lng": -117.852518, "attending": 1, "accepted": 0, "rate": 73 },
    { "id": "1089", "name": "City Colleges of Chicago, Harold Washington College", "city": "Chicago", "state": "Illinois", "lat": 41.886067, "lng": -87.626596, "attending": 1, "accepted": 1, "rate": 100 },
    { "id": "6099", "name": "Clarke University", "city": "Dubuque", "state": "Iowa", "lat": 42.509475, "lng": -90.690487, "attending": 1, "accepted": 2, "rate": 70 },
    { "id": "6101", "name": "Coe College", "city": "Cedar Rapids", "state": "Iowa", "lat": 41.988263, "lng": -91.658192, "attending": 2, "accepted": 6, "rate": 80 },
    { "id": "1083", "name": "College of DuPage", "city": "Glen Ellyn", "state": "Illinois", "lat": 41.841577, "lng": -88.071635, "attending": 6, "accepted": 6, "rate": 100 },
    { "id": "4484", "name": "Colorado Mesa University", "city": "Grand Junction", "state": "Colorado", "lat": 39.080643, "lng": -108.553275, "attending": 1, "accepted": 1, "rate": 75 },
    { "id": "4073", "name": "Colorado School of Mines", "city": "Golden", "state": "Colorado", "lat": 39.751443, "lng": -105.223364, "attending": 2, "accepted": 2, "rate": 58 },
    { "id": "4075", "name": "Colorado State University", "city": "Fort Collins", "state": "Colorado", "lat": 40.574805, "lng": -105.080732, "attending": 2, "accepted": 8, "rate": 91 },
    { "id": "6095", "name": "Columbia College", "city": "Columbia", "state": "Missouri", "lat": 38.957388, "lng": -92.326354, "attending": 1, "accepted": 1, "rate": 100 },
    { "id": "1135", "name": "Columbia College Chicago", "city": "Chicago", "state": "Illinois", "lat": 41.874261, "lng": -87.624667, "attending": 4, "accepted": 8, "rate": 96 },
    { "id": "1148", "name": "Columbus State Community College", "city": "Columbus", "state": "Ohio", "lat": 39.96887, "lng": -82.98766, "attending": 1, "accepted": 1, "rate": 100 },
    { "id": "6114", "name": "Concordia University, St. Paul", "city": "St. Paul", "state": "Minnesota", "lat": 44.949759, "lng": -93.154861, "attending": 1, "accepted": 1, "rate": 68 },
    { "id": "2098", "name": "Cornell University", "city": "Ithaca", "state": "New York", "lat": 42.4472, "lng": -76.483084, "attending": 1, "accepted": 1, "rate": 7 },
    { "id": "1164", "name": "Denison University", "city": "Granville", "state": "Ohio", "lat": 40.071505, "lng": -82.523272, "attending": 1, "accepted": 1, "rate": 22 },
    { "id": "1165", "name": "DePaul University", "city": "Chicago", "state": "Illinois", "lat": 41.877618, "lng": -87.62724, "attending": 4, "accepted": 14, "rate": 70 },
    { "id": "6177", "name": "Des Moines Area Community College", "city": "Ankeny", "state": "Iowa", "lat": 41.707348, "lng": -93.611597, "attending": 1, "accepted": 0, "rate": 100 },
    { "id": "1171", "name": "DeVry University - Lisle", "city": "Lisle", "state": "Illinois", "lat": 41.799874, "lng": -88.126334, "attending": 1, "accepted": 1, "rate": 96 },
    { "id": "6168", "name": "Drake University", "city": "Des Moines", "state": "Iowa", "lat": 41.60129, "lng": -93.652163, "attending": 5, "accepted": 7, "rate": 88 },
    { "id": "1199", "name": "Eastern Illinois University", "city": "Charleston", "state": "Illinois", "lat": 39.479843, "lng": -88.175658, "attending": 4, "accepted": 11, "rate": 72 },
    { "id": "1200", "name": "Eastern Kentucky University", "city": "Richmond", "state": "Kentucky", "lat": 37.740845, "lng": -84.300796, "attending": 1, "accepted": 2, "rate": 98 },
    { "id": "1201", "name": "Eastern Michigan University", "city": "Ypsilanti", "state": "Michigan", "lat": 42.251675, "lng": -83.627443, "attending": 3, "accepted": 3, "rate": 83 },
    { "id": "5223", "name": "Eckerd College", "city": "St. Petersburg", "state": "Florida", "lat": 27.715798, "lng": -82.687043, "attending": 1, "accepted": 0, "rate": 65 },
    { "id": "1202", "name": "Edgewood College", "city": "Madison", "state": "Wisconsin", "lat": 43.057059, "lng": -89.422884, "attending": 2, "accepted": 2, "rate": 92 },
    { "id": "1203", "name": "Elgin Community College", "city": "Elgin", "state": "Illinois", "lat": 42.018066, "lng": -88.32194, "attending": 11, "accepted": 10, "rate": 100 },
    { "id": "C4058", "name": "Ellsworth Community College", "city": "Iowa Falls", "state": "Iowa", "lat": 42.527524, "lng": -93.265853, "attending": 1, "accepted": 0, "rate": 100 },
    { "id": "1204", "name": "Elmhurst University", "city": "Elmhurst", "state": "Illinois", "lat": 41.897164, "lng": -87.945369, "attending": 4, "accepted": 2, "rate": 75 },
    { "id": "5183", "name": "Elon University", "city": "Elon", "state": "North Carolina", "lat": 36.104148, "lng": -79.50344, "attending": 1, "accepted": 0, "rate": 78 },
    { "id": "5190", "name": "Embry-Riddle Aeronautical University - Daytona Beach", "city": "Daytona Beach", "state": "Florida", "lat": 29.189903, "lng": -81.048367, "attending": 1, "accepted": 1, "rate": 65 },
    { "id": "6198", "name": "Evangel University", "city": "Springfield", "state": "Missouri", "lat": 37.220956, "lng": -93.262614, "attending": 1, "accepted": 1, "rate": 94 },
    { "id": "5208", "name": "Fayetteville Technical Community College", "city": "Fayetteville", "state": "North Carolina", "lat": 35.068851, "lng": -78.92658, "attending": 1, "accepted": 1, "rate": 100 },
    { "id": "5221", "name": "Florida Gulf Coast University", "city": "Fort Myers", "state": "Florida", "lat": 26.463638, "lng": -81.7726, "attending": 2, "accepted": 4, "rate": 74 },
    { "id": "1133", "name": "Franciscan University of Steubenville", "city": "Steubenville", "state": "Ohio", "lat": 40.376919, "lng": -80.620524, "attending": 1, "accepted": 2, "rate": 77 },
    { "id": "5248", "name": "Georgia Institute of Technology", "city": "Atlanta", "state": "Georgia", "lat": 33.77242, "lng": -84.394832, "attending": 3, "accepted": 1, "rate": 17 },
    { "id": "2275", "name": "Gettysburg College", "city": "Gettysburg", "state": "Pennsylvania", "lat": 39.836597, "lng": -77.236792, "attending": 1, "accepted": 1, "rate": 48 },
    { "id": "1252", "name": "Grace College and Theological Seminary", "city": "Winona Lake", "state": "Indiana", "lat": 41.22595, "lng": -85.814228, "attending": 1, "accepted": 1, "rate": 82 },
    { "id": "4331", "name": "Grand Canyon University", "city": "Phoenix", "state": "Arizona", "lat": 33.5122, "lng": -112.13, "attending": 2, "accepted": 4, "rate": 80 },
    { "id": "1258", "name": "Grand Valley State University", "city": "Allendale", "state": "Michigan", "lat": 42.963001, "lng": -85.889826, "attending": 3, "accepted": 2, "rate": 90 },
    { "id": "6251", "name": "Grand View University", "city": "Des Moines", "state": "Iowa", "lat": 41.620039, "lng": -93.600954, "attending": 1, "accepted": 3, "rate": 97 },
    { "id": "6252", "name": "Grinnell College", "city": "Grinnell", "state": "Iowa", "lat": 41.747952, "lng": -92.722094, "attending": 1, "accepted": 0, "rate": 11 },
    { "id": "3434", "name": "Harvard University", "city": "Cambridge", "state": "Massachusetts", "lat": 42.374471, "lng": -71.118313, "attending": 1, "accepted": 0, "rate": 3 },
    { "id": "1361", "name": "Heartland Community College", "city": "Normal", "state": "Illinois", "lat": 40.53301, "lng": -89.014776, "attending": 1, "accepted": 0, "rate": 100 },
    { "id": "1233", "name": "Highland Community College, Illinois", "city": "Freeport", "state": "Illinois", "lat": 42.283344, "lng": -89.67342, "attending": 1, "accepted": 1, "rate": 100 },
    { "id": "1295", "name": "Hillsdale College", "city": "Hillsdale", "state": "Michigan", "lat": 41.933682, "lng": -84.633195, "attending": 2, "accepted": 1, "rate": 24 },
    { "id": "1301", "name": "Hope College", "city": "Holland", "state": "Michigan", "lat": 42.787247, "lng": -86.100971, "attending": 2, "accepted": 3, "rate": 80 },
    { "id": "1318", "name": "Illinois Institute of Technology", "city": "Chicago", "state": "Illinois", "lat": 41.8313, "lng": -87.627321, "attending": 1, "accepted": 2, "rate": 66 },
    { "id": "1319", "name": "Illinois State University", "city": "Normal", "state": "Illinois", "lat": 40.509403, "lng": -88.990058, "attending": 69, "accepted": 64, "rate": 86 },
    { "id": "1320", "name": "Illinois Wesleyan University", "city": "Bloomington", "state": "Illinois", "lat": 40.489901, "lng": -88.992014, "attending": 2, "accepted": 5, "rate": 60 },
    { "id": "1323", "name": "Indiana Institute of Technology", "city": "Fort Wayne", "state": "Indiana", "lat": 41.078365, "lng": -85.116479, "attending": 1, "accepted": 1, "rate": 63 },
    { "id": "1322", "name": "Indiana State University", "city": "Terre Haute", "state": "Indiana", "lat": 39.469073, "lng": -87.407846, "attending": 2, "accepted": 5, "rate": 92 },
    { "id": "1325", "name": "Indiana University - Indianapolis", "city": "Indianapolis", "state": "Indiana", "lat": 39.772948, "lng": -86.172217, "attending": 2, "accepted": 1, "rate": 81 },
    { "id": "1324", "name": "Indiana University Bloomington", "city": "Bloomington", "state": "Indiana", "lat": 39.16609, "lng": -86.526559, "attending": 3, "accepted": 6, "rate": 82 },
    { "id": "1446", "name": "Indiana Wesleyan University - Marion", "city": "Marion", "state": "Indiana", "lat": 40.517937, "lng": -85.667503, "attending": 1, "accepted": 1, "rate": 68 },
    { "id": "6306", "name": "Iowa State University of Science and Technology", "city": "Ames", "state": "Iowa", "lat": 42.026212, "lng": -93.648504, "attending": 39, "accepted": 58, "rate": 90 },
    { "id": "0640", "name": "ITT Technical Institute-Indianapolis", "city": "Indianapolis", "state": "Indiana", "lat": 39.924786, "lng": -86.223038, "attending": 1, "accepted": 1, "rate": 100 },
    { "id": "5331", "name": "Jacksonville University", "city": "Jacksonville", "state": "Florida", "lat": 30.353227, "lng": -81.60458, "attending": 1, "accepted": 1, "rate": 58 },
    { "id": "1328", "name": "Jefferson Community and Technical College", "city": "Louisville", "state": "Kentucky", "lat": 38.246027, "lng": -85.753615, "attending": 1, "accepted": 1, "rate": 100 },
    { "id": "2264", "name": "Eastern Gateway Community College", "city": "Steubenville", "state": "Ohio", "lat": 40.376056, "lng": -80.672337, "attending": 1, "accepted": 0, "rate": 100 },
    { "id": "1351", "name": "Judson University", "city": "Elgin", "state": "Illinois", "lat": 42.061754, "lng": -88.291336, "attending": 4, "accepted": 2, "rate": 58 },
    { "id": "1365", "name": "Kalamazoo College", "city": "Kalamazoo", "state": "Michigan", "lat": 42.290789, "lng": -85.601857, "attending": 1, "accepted": 1, "rate": 74 },
    { "id": "1380", "name": "Kankakee Community College", "city": "Kankakee", "state": "Illinois", "lat": 41.098178, "lng": -87.851047, "attending": 1, "accepted": 0, "rate": 100 },
    { "id": "C3933", "name": "Kaplan College", "city": "Davenport", "state": "IA", "lat": 41.556786, "lng": -90.55019, "attending": 1, "accepted": 1, "rate": 100 },
    { "id": "5359", "name": "Kennesaw State University", "city": "Kennesaw", "state": "Georgia", "lat": 34.038807, "lng": -84.583052, "attending": 1, "accepted": 1, "rate": 68 },
    { "id": "1367", "name": "Kent State University", "city": "Kent", "state": "Ohio", "lat": 41.146653, "lng": -81.342533, "attending": 1, "accepted": 1, "rate": 87 },
    { "id": "6027", "name": "Kirkwood Community College", "city": "Cedar Rapids", "state": "Iowa", "lat": 41.911268, "lng": -91.651172, "attending": 1, "accepted": 0, "rate": 100 },
    { "id": "0511", "name": "Kishwaukee College", "city": "Malta", "state": "Illinois", "lat": 41.938234, "lng": -88.880524, "attending": 259, "accepted": 146, "rate": 100 },
    { "id": "1372", "name": "Knox College", "city": "Galesburg", "state": "Illinois", "lat": 40.943064, "lng": -90.373165, "attending": 1, "accepted": 4, "rate": 73 },
    { "id": "1424", "name": "Lake Land College", "city": "Mattoon", "state": "Illinois", "lat": 39.416969, "lng": -88.380835, "attending": 3, "accepted": 2, "rate": 100 },
    { "id": "1398", "name": "Lawrence University", "city": "Appleton", "state": "Wisconsin", "lat": 44.261323, "lng": -88.397822, "attending": 2, "accepted": 1, "rate": 69 },
    { "id": "4384", "name": "Lewis & Clark College", "city": "Portland", "state": "Oregon", "lat": 45.450882, "lng": -122.669137, "attending": 1, "accepted": 1, "rate": 79 },
    { "id": "1404", "name": "Lewis University", "city": "Romeoville", "state": "Illinois", "lat": 41.605432, "lng": -88.079032, "attending": 2, "accepted": 1, "rate": 74 },
    { "id": "5385", "name": "Liberty University", "city": "Lynchburg", "state": "Virginia", "lat": 37.350232, "lng": -79.18222, "attending": 1, "accepted": 1, "rate": 99 },
    { "id": "6367", "name": "Lindenwood University", "city": "Saint Charles", "state": "Missouri", "lat": 38.785425, "lng": -90.501286, "attending": 2, "accepted": 6, "rate": 75 },
    { "id": "1161", "name": "Lipscomb University", "city": "Nashville", "state": "Tennessee", "lat": 36.106253, "lng": -86.799791, "attending": 1, "accepted": 1, "rate": 61 },
    { "id": "4388", "name": "Long Beach City College", "city": "Long Beach", "state": "California", "lat": 33.833593, "lng": -118.135633, "attending": 1, "accepted": 1, "rate": 100 },
    { "id": "6370", "name": "Loras College", "city": "Dubuque", "state": "Iowa", "lat": 42.503908, "lng": -90.679023, "attending": 4, "accepted": 10, "rate": 50 },
    { "id": "6373", "name": "Louisiana State University and Agricultural & Mechanical College", "city": "Baton Rouge", "state": "Louisiana", "lat": 30.414986, "lng": -91.178921, "attending": 2, "accepted": 3, "rate": 71 },
    { "id": "1412", "name": "Loyola University Chicago", "city": "Chicago", "state": "Illinois", "lat": 42.000765, "lng": -87.656872, "attending": 13, "accepted": 36, "rate": 79 },
    { "id": "1448", "name": "Marquette University", "city": "Milwaukee", "state": "Wisconsin", "lat": 43.03903, "lng": -87.927961, "attending": 14, "accepted": 15, "rate": 87 },
    { "id": "6399", "name": "Maryville University of Saint Louis", "city": "St. Louis", "state": "Missouri", "lat": 38.644774, "lng": -90.505998, "attending": 1, "accepted": 2, "rate": 95 },
    { "id": "1525", "name": "McHenry County College", "city": "Crystal Lake", "state": "Illinois", "lat": 42.259111, "lng": -88.368956, "attending": 1, "accepted": 1, "rate": 100 },
    { "id": "1456", "name": "McKendree University", "city": "Lebanon", "state": "Illinois", "lat": 38.608154, "lng": -89.816822, "attending": 1, "accepted": 0, "rate": 70 },
    { "id": "6324", "name": "Metropolitan Community College - Kansas City", "city": "Kansas City", "state": "Missouri", "lat": 39.0686, "lng": -94.591, "attending": 1, "accepted": 0, "rate": 100 },
    { "id": "1463", "name": "Miami University-Oxford", "city": "Oxford", "state": "Ohio", "lat": 39.507757, "lng": -84.732954, "attending": 2, "accepted": 7, "rate": 87 },
    { "id": "1465", "name": "Michigan State University", "city": "East Lansing", "state": "Michigan", "lat": 42.73212, "lng": -84.476111, "attending": 2, "accepted": 8, "rate": 88 },
    { "id": "1464", "name": "Michigan Technological University", "city": "Houghton", "state": "Michigan", "lat": 47.11866, "lng": -88.548092, "attending": 1, "accepted": 6, "rate": 86 },
    { "id": "0635", "name": "Mid-State Technical College", "city": "Wisconsin Rapids", "state": "Wisconsin", "lat": 44.391091, "lng": -89.783785, "attending": 1, "accepted": 1, "rate": 100 },
    { "id": "1466", "name": "Middle Tennessee State University", "city": "Murfreesboro", "state": "Tennessee", "lat": 35.848005, "lng": -86.360618, "attending": 2, "accepted": 2, "rate": 94 },
    { "id": "1476", "name": "Milwaukee School of Engineering", "city": "Milwaukee", "state": "Wisconsin", "lat": 43.045364, "lng": -87.907691, "attending": 3, "accepted": 6, "rate": 63 },
    { "id": "6677", "name": "Minnesota State University - Mankato", "city": "Mankato", "state": "Minnesota", "lat": 44.146712, "lng": -93.99945, "attending": 1, "accepted": 0, "rate": 67 },
    { "id": "1480", "name": "Mississippi State University", "city": "Mississippi State", "state": "Mississippi", "lat": 33.454852, "lng": -88.790139, "attending": 1, "accepted": 2, "rate": 76 },
    { "id": "6665", "name": "Missouri State University", "city": "Springfield", "state": "Missouri", "lat": 37.199258, "lng": -93.281281, "attending": 1, "accepted": 1, "rate": 88 },
    { "id": "6876", "name": "Missouri University of Science and Technology", "city": "Rolla", "state": "Missouri", "lat": 37.953426, "lng": -91.775583, "attending": 1, "accepted": 3, "rate": 81 },
    { "id": "1484", "name": "Monmouth College", "city": "Monmouth", "state": "Illinois", "lat": 40.914824, "lng": -90.63731, "attending": 2, "accepted": 3, "rate": 74 },
    { "id": "4488", "name": "Montana State University", "city": "Bozeman", "state": "Montana", "lat": 45.666726, "lng": -111.048812, "attending": 1, "accepted": 3, "rate": 73 },
    { "id": "5423", "name": "Montreat College", "city": "Montreat", "state": "North Carolina", "lat": 35.646577, "lng": -82.2976, "attending": 1, "accepted": 0, "rate": 66 },
    { "id": "1486", "name": "Moody Bible Institute", "city": "Chicago", "state": "Illinois", "lat": 41.897822, "lng": -87.633459, "attending": 1, "accepted": 0, "rate": 98 },
    { "id": "5415", "name": "Morehouse College", "city": "Atlanta", "state": "Georgia", "lat": 33.745982, "lng": -84.414917, "attending": 1, "accepted": 1, "rate": 65 },
    { "id": "1490", "name": "Mount Mary University", "city": "Milwaukee", "state": "Wisconsin", "lat": 43.072507, "lng": -88.030732, "attending": 1, "accepted": 1, "rate": 63 },
    { "id": "6417", "name": "Mount Mercy University", "city": "Cedar Rapids", "state": "Iowa", "lat": 42.001931, "lng": -91.650991, "attending": 1, "accepted": 3, "rate": 74 },
    { "id": "1494", "name": "Murray State University", "city": "Murray", "state": "Kentucky", "lat": 36.612419, "lng": -88.323629, "attending": 1, "accepted": 1, "rate": 85 },
    { "id": "4530", "name": "Napa Valley College", "city": "Napa", "state": "California", "lat": 38.274081, "lng": -122.274381, "attending": 1, "accepted": 1, "rate": 100 },
    { "id": "5496", "name": "North Carolina State University", "city": "Raleigh", "state": "North Carolina", "lat": 35.785111, "lng": -78.674517, "attending": 3, "accepted": 2, "rate": 47 },
    { "id": "1555", "name": "North Central College", "city": "Naperville", "state": "Illinois", "lat": 41.77576, "lng": -88.14279, "attending": 12, "accepted": 26, "rate": 67 },
    { "id": "1556", "name": "North Park University", "city": "Chicago", "state": "Illinois", "lat": 41.975268, "lng": -87.709948, "attending": 3, "accepted": 3, "rate": 53 },
    { "id": "1559", "name": "Northern Illinois University", "city": "DeKalb", "state": "Illinois", "lat": 41.933869, "lng": -88.766428, "attending": 106, "accepted": 88, "rate": 70 },
    { "id": "1560", "name": "Northern Michigan University", "city": "Marquette", "state": "Michigan", "lat": 46.559751, "lng": -87.406568, "attending": 1, "accepted": 2, "rate": 66 },
    { "id": "1565", "name": "Northwestern University", "city": "Evanston", "state": "Illinois", "lat": 42.050356, "lng": -87.679858, "attending": 3, "accepted": 3, "rate": 7 },
    { "id": "3669", "name": "Norwich University", "city": "Northfield", "state": "Vermont", "lat": 44.140237, "lng": -72.659783, "attending": 1, "accepted": 0, "rate": 74 },
    { "id": "1593", "name": "Ohio University", "city": "Athens", "state": "Ohio", "lat": 39.326798, "lng": -82.100985, "attending": 1, "accepted": 3, "rate": 87 },
    { "id": "6086", "name": "Oklahoma Christian University", "city": "Edmond", "state": "Oklahoma", "lat": 35.611412, "lng": -97.469526, "attending": 1, "accepted": 1, "rate": 96 },
    { "id": "6546", "name": "Oklahoma State University", "city": "Stillwater", "state": "Oklahoma", "lat": 36.123085, "lng": -97.069743, "attending": 2, "accepted": 2, "rate": 68 },
    { "id": "1596", "name": "Olivet Nazarene University", "city": "Bourbonnais", "state": "Illinois", "lat": 41.155237, "lng": -87.875165, "attending": 4, "accepted": 3, "rate": 62 },
    { "id": "C3474", "name": "Olney Central College", "city": "Olney", "state": "Illinois", "lat": 38.735913, "lng": -88.099589, "attending": 1, "accepted": 1, "rate": 100 },
    { "id": "4586", "name": "Oregon State University", "city": "Corvallis", "state": "Oregon", "lat": 44.56395, "lng": -123.274723, "attending": 2, "accepted": 2, "rate": 82 },
    { "id": "5553", "name": "Palm Beach Atlantic University", "city": "West Palm Beach", "state": "Florida", "lat": 26.705118, "lng": -80.050608, "attending": 2, "accepted": 2, "rate": 92 },
    { "id": "5564", "name": "Penn State University Park", "city": "University Park", "state": "Pennsylvania", "lat": 40.7963, "lng": -77.8628, "attending": 1, "accepted": 1, "rate": 55 },
    { "id": "0639", "name": "University of Phoenix-Phoenix Campus", "city": "Phoenix", "state": "Arizona", "lat": 33.4079, "lng": -111.9664, "attending": 1, "accepted": 0, "rate": 100 },
    { "id": "6873", "name": "Pratt Community College", "city": "Pratt", "state": "Kansas", "lat": 37.6534, "lng": -98.7248, "attending": 1, "accepted": 0, "rate": 100 },
    { "id": "1624", "name": "Purdue University", "city": "West Lafayette", "state": "Indiana", "lat": 40.428206, "lng": -86.914435, "attending": 5, "accepted": 15, "rate": 53 },
    { "id": "1326", "name": "Purdue University Fort Wayne", "city": "Fort Wayne", "state": "Indiana", "lat": 41.1182, "lng": -85.1077, "attending": 1, "accepted": 0, "rate": 81 },
    { "id": "3732", "name": "Quinnipiac University", "city": "Hamden", "state": "Connecticut", "lat": 41.418706, "lng": -72.894396, "attending": 1, "accepted": 0, "rate": 88 },
    { "id": "3733", "name": "Rhode Island School of Design", "city": "Providence", "state": "Rhode Island", "lat": 41.8268, "lng": -71.4082, "attending": 1, "accepted": 0, "rate": 19 },
    { "id": "1652", "name": "Ripon College", "city": "Ripon", "state": "Wisconsin", "lat": 43.844007, "lng": -88.841548, "attending": 1, "accepted": 3, "rate": 72 },
    { "id": "1665", "name": "Rock Valley College", "city": "Rockford", "state": "Illinois", "lat": 42.304037, "lng": -89.006399, "attending": 2, "accepted": 3, "rate": 100 },
    { "id": "1664", "name": "Rockford University", "city": "Rockford", "state": "Illinois", "lat": 42.261908, "lng": -89.020294, "attending": 1, "accepted": 1, "rate": 55 },
    { "id": "1668", "name": "Rose-Hulman Institute of Technology", "city": "Terre Haute", "state": "Indiana", "lat": 39.4828, "lng": -87.3239, "attending": 1, "accepted": 0, "rate": 73 },
    { "id": "1488", "name": "Saint Louis University", "city": "St. Louis", "state": "Missouri", "lat": 38.636453, "lng": -90.234056, "attending": 1, "accepted": 9, "rate": 70 },
    { "id": "1701", "name": "Saint Mary's College", "city": "Notre Dame", "state": "Indiana", "lat": 41.7107, "lng": -86.2483, "attending": 1, "accepted": 0, "rate": 84 },
    { "id": "1703", "name": "Saint Mary's University of Minnesota", "city": "Winona", "state": "Minnesota", "lat": 44.043594, "lng": -91.699763, "attending": 1, "accepted": 0, "rate": 84 },
    { "id": "4697", "name": "Santa Rosa Junior College", "city": "Santa Rosa", "state": "California", "lat": 38.4552, "lng": -122.7214, "attending": 1, "accepted": 1, "rate": 100 },
    { "id": "4707", "name": "Santiago Canyon College", "city": "Orange", "state": "California", "lat": 33.8058, "lng": -117.7779, "attending": 1, "accepted": 0, "rate": 100 },
    { "id": "1713", "name": "Sauk Valley Community College", "city": "Dixon", "state": "Illinois", "lat": 41.821731, "lng": -89.605349, "attending": 1, "accepted": 0, "rate": 100 },
    { "id": "5604", "name": "Savannah College of Art and Design", "city": "Savannah", "state": "Georgia", "lat": 32.072233, "lng": -81.096957, "attending": 2, "accepted": 4, "rate": 82 },
    { "id": "6741", "name": "South Dakota State University", "city": "Brookings", "state": "South Dakota", "lat": 44.319087, "lng": -96.783515, "attending": 1, "accepted": 2, "rate": 87 },
    { "id": "6655", "name": "Southeast Missouri State University", "city": "Cape Girardeau", "state": "Missouri", "lat": 37.3153, "lng": -89.5284, "attending": 1, "accepted": 1, "rate": 86 },
    { "id": "5632", "name": "Southeastern Community College, NC", "city": "Whiteville", "state": "North Carolina", "lat": 34.3315, "lng": -78.7188, "attending": 1, "accepted": 0, "rate": 100 },
    { "id": "1727", "name": "Southern Illinois University - Edwardsville", "city": "Edwardsville", "state": "Illinois", "lat": 38.794695, "lng": -89.998492, "attending": 1, "accepted": 9, "rate": 98 },
    { "id": "1726", "name": "Southern Illinois University Carbondale", "city": "Carbondale", "state": "Illinois", "lat": 37.712711, "lng": -89.222383, "attending": 7, "accepted": 25, "rate": 95 },
    { "id": "3649", "name": "Southern New Hampshire University", "city": "Manchester", "state": "New Hampshire", "lat": 43.0373, "lng": -71.4503, "attending": 1, "accepted": 0, "rate": 96 },
    { "id": "2201", "name": "St. Ambrose University", "city": "Davenport", "state": "Iowa", "lat": 41.539343, "lng": -90.584742, "attending": 2, "accepted": 5, "rate": 73 },
    { "id": "1753", "name": "St. Norbert College", "city": "De Pere", "state": "Wisconsin", "lat": 44.444903, "lng": -88.067332, "attending": 2, "accepted": 4, "rate": 84 },
    { "id": "6638", "name": "St. Olaf College", "city": "Northfield", "state": "Minnesota", "lat": 44.462106, "lng": -93.181829, "attending": 1, "accepted": 2, "rate": 47 },
    { "id": "5606", "name": "St. Petersburg College", "city": "St. Petersburg", "state": "Florida", "lat": 27.7943, "lng": -82.7233, "attending": 1, "accepted": 0, "rate": 100 },
    { "id": "5427", "name": "State College of Florida Manatee-Sarasota", "city": "Bradenton", "state": "Florida", "lat": 27.4293, "lng": -82.5835, "attending": 1, "accepted": 0, "rate": 100 },
    { "id": "4821", "name": "Taft College", "city": "Taft", "state": "California", "lat": 35.1384, "lng": -119.4533, "attending": 1, "accepted": 1, "rate": 100 },
    { "id": "6827", "name": "Texas Christian University", "city": "Fort Worth", "state": "Texas", "lat": 32.709549, "lng": -97.362635, "attending": 1, "accepted": 1, "rate": 56 },
    { "id": "6828", "name": "Texas Tech University", "city": "Lubbock", "state": "Texas", "lat": 33.5843, "lng": -101.8783, "attending": 1, "accepted": 0, "rate": 67 },
    { "id": "4292", "name": "The Evergreen State College", "city": "Olympia", "state": "Washington", "lat": 47.0722, "lng": -122.9765, "attending": 1, "accepted": 0, "rate": 75 },
    { "id": "1573", "name": "The Ohio State University at Columbus", "city": "Columbus", "state": "Ohio", "lat": 40.00062, "lng": -83.01353, "attending": 4, "accepted": 7, "rate": 53 },
    { "id": "1856", "name": "The University of Alabama", "city": "Tuscaloosa", "state": "Alabama", "lat": 33.206233, "lng": -87.53606, "attending": 2, "accepted": 22, "rate": 80 },
    { "id": "4832", "name": "The University of Arizona", "city": "Tucson", "state": "Arizona", "lat": 32.232071, "lng": -110.950769, "attending": 4, "accepted": 15, "rate": 87 },
    { "id": "1836a", "name": "The University of Iowa", "city": "Iowa City", "state": "Iowa", "lat": 41.660689, "lng": -91.550249, "attending": 26, "accepted": 45, "rate": 86 },
    { "id": "5815", "name": "The University of Tampa", "city": "Tampa", "state": "Florida", "lat": 27.947265, "lng": -82.465134, "attending": 1, "accepted": 7, "rate": 54 },
    { "id": "1850", "name": "The University of Tennessee", "city": "Knoxville", "state": "Tennessee", "lat": 35.955172, "lng": -83.929851, "attending": 1, "accepted": 9, "rate": 68 },
    { "id": "6882", "name": "The University of Texas at Austin", "city": "Austin", "state": "Texas", "lat": 30.2849, "lng": -97.7341, "attending": 1, "accepted": 0, "rate": 31 },
    { "id": "6883", "name": "The University of Tulsa", "city": "Tulsa", "state": "Oklahoma", "lat": 36.152, "lng": -95.946, "attending": 1, "accepted": 0, "rate": 69 },
    { "id": "4867", "name": "The University of Utah", "city": "Salt Lake City", "state": "Utah", "lat": 40.762485, "lng": -111.846044, "attending": 2, "accepted": 4, "rate": 89 },
    { "id": "1839", "name": "Trine University", "city": "Angola", "state": "Indiana", "lat": 41.631897, "lng": -85.000305, "attending": 1, "accepted": 1, "rate": 80 },
    { "id": "1840", "name": "Trinity Christian College", "city": "Palos Heights", "state": "Illinois", "lat": 41.66699, "lng": -87.789218, "attending": 2, "accepted": 2, "rate": 73 },
    { "id": "6831", "name": "Trinity University", "city": "San Antonio", "state": "Texas", "lat": 29.4636, "lng": -98.4815, "attending": 1, "accepted": 0, "rate": 31 },
    { "id": "3920", "name": "Tulane University", "city": "New Orleans", "state": "Louisiana", "lat": 29.935515, "lng": -90.122709, "attending": 1, "accepted": 2, "rate": 11 },
    { "id": "1855", "name": "Union University", "city": "Jackson", "state": "Tennessee", "lat": 35.6565, "lng": -88.8576, "attending": 1, "accepted": 0, "rate": 53 },
    { "id": "1826", "name": "United States Air Force Academy", "city": "USAF Academy", "state": "Colorado", "lat": 38.995804, "lng": -104.86015, "attending": 1, "accepted": 1, "rate": 11 },
    { "id": "2909", "name": "United States Merchant Marine Academy", "city": "Kings Point", "state": "New York", "lat": 40.8122, "lng": -73.7627, "attending": 1, "accepted": 0, "rate": 26 },
    { "id": "6016", "name": "University of Arkansas", "city": "Fayetteville", "state": "Arkansas", "lat": 36.066067, "lng": -94.173873, "attending": 1, "accepted": 0, "rate": 83 },
    { "id": "5812", "name": "University of Central Florida", "city": "Orlando", "state": "Florida", "lat": 28.6024, "lng": -81.2001, "attending": 1, "accepted": 0, "rate": 41 },
    { "id": "1832", "name": "University of Chicago", "city": "Chicago", "state": "Illinois", "lat": 41.7886, "lng": -87.5987, "attending": 1, "accepted": 0, "rate": 5 },
    { "id": "4841", "name": "University of Colorado Boulder", "city": "Boulder", "state": "Colorado", "lat": 40.007581, "lng": -105.265942, "attending": 3, "accepted": 12, "rate": 80 },
    { "id": "4842", "name": "University of Colorado Colorado Springs", "city": "Colorado Springs", "state": "Colorado", "lat": 38.89311, "lng": -104.800537, "attending": 2, "accepted": 1, "rate": 90 },
    { "id": "4843", "name": "University of Denver", "city": "Denver", "state": "Colorado", "lat": 39.6766, "lng": -104.9619, "attending": 1, "accepted": 0, "rate": 78 },
    { "id": "5813", "name": "University of Georgia", "city": "Athens", "state": "Georgia", "lat": 33.947953, "lng": -83.373384, "attending": 1, "accepted": 1, "rate": 43 },
    { "id": "1700", "name": "University of Health Sciences and Pharmacy in St. Louis", "city": "St. Louis", "state": "Missouri", "lat": 38.636, "lng": -90.2618, "attending": 1, "accepted": 1, "rate": 78 },
    { "id": "1831", "name": "University of Illinois at Urbana-Champaign", "city": "Champaign", "state": "Illinois", "lat": 40.108861, "lng": -88.230309, "attending": 68, "accepted": 58, "rate": 45 },
    { "id": "1836b", "name": "University of Illinois Chicago", "city": "Chicago", "state": "Illinois", "lat": 41.871889, "lng": -87.64925, "attending": 7, "accepted": 14, "rate": 79 },
    { "id": "1830", "name": "University of Illinois Springfield", "city": "Springfield", "state": "Illinois", "lat": 39.73088, "lng": -89.617466, "attending": 1, "accepted": 1, "rate": 79 },
    { "id": "1837", "name": "University of Kentucky", "city": "Lexington", "state": "Kentucky", "lat": 38.038165, "lng": -84.504207, "attending": 6, "accepted": 17, "rate": 94 },
    { "id": "1838", "name": "University of Louisville", "city": "Louisville", "state": "Kentucky", "lat": 38.215886, "lng": -85.759407, "attending": 1, "accepted": 1, "rate": 74 },
    { "id": "3447", "name": "University of Maine at Farmington", "city": "Farmington", "state": "Maine", "lat": 44.6675, "lng": -70.1471, "attending": 1, "accepted": 1, "rate": 93 },
    { "id": "5814", "name": "University of Miami", "city": "Coral Gables", "state": "Florida", "lat": 25.72126, "lng": -80.278663, "attending": 1, "accepted": 2, "rate": 19 },
    { "id": "1839b", "name": "University of Michigan", "city": "Ann Arbor", "state": "Michigan", "lat": 42.276993, "lng": -83.738202, "attending": 2, "accepted": 4, "rate": 18 },
    { "id": "6874", "name": "University of Minnesota, Twin Cities Campus", "city": "Minneapolis", "state": "Minnesota", "lat": 44.972886, "lng": -93.235351, "attending": 1, "accepted": 11, "rate": 75 },
    { "id": "6872", "name": "University of Mississippi", "city": "University", "state": "Mississippi", "lat": 34.364239, "lng": -89.539316, "attending": 3, "accepted": 3, "rate": 89 },
    { "id": "6875", "name": "University of Missouri", "city": "Columbia", "state": "Missouri", "lat": 38.940381, "lng": -92.327739, "attending": 33, "accepted": 33, "rate": 77 },
    { "id": "6877", "name": "University of Missouri-Kansas City", "city": "Kansas City", "state": "Missouri", "lat": 39.0345, "lng": -94.5768, "attending": 1, "accepted": 0, "rate": 69 },
    { "id": "4489", "name": "University of Montana", "city": "Missoula", "state": "Montana", "lat": 46.8601, "lng": -113.984, "attending": 1, "accepted": 0, "rate": 94 },
    { "id": "6878", "name": "University of Nebraska-Lincoln", "city": "Lincoln", "state": "Nebraska", "lat": 40.817631, "lng": -96.701467, "attending": 2, "accepted": 7, "rate": 81 },
    { "id": "3751", "name": "University of New England", "city": "Biddeford", "state": "Maine", "lat": 43.4912, "lng": -70.4533, "attending": 1, "accepted": 0, "rate": 90 },
    { "id": "6891", "name": "University of North Dakota", "city": "Grand Forks", "state": "North Dakota", "lat": 47.921654, "lng": -97.075489, "attending": 1, "accepted": 1, "rate": 87 },
    { "id": "6880", "name": "University of Northern Iowa", "city": "Cedar Falls", "state": "Iowa", "lat": 42.513369, "lng": -92.462218, "attending": 3, "accepted": 4, "rate": 76 },
    { "id": "1842", "name": "University of Notre Dame", "city": "Notre Dame", "state": "Indiana", "lat": 41.703058, "lng": -86.238959, "attending": 2, "accepted": 2, "rate": 12 },
    { "id": "6883", "name": "University of Oklahoma", "city": "Norman", "state": "Oklahoma", "lat": 35.208722, "lng": -97.445722, "attending": 1, "accepted": 2, "rate": 85 },
    { "id": "2926", "name": "University of Pennsylvania", "city": "Philadelphia", "state": "Pennsylvania", "lat": 39.9522, "lng": -75.1932, "attending": 1, "accepted": 0, "rate": 6 },
    { "id": "6885", "name": "University of South Carolina-Columbia", "city": "Columbia", "state": "South Carolina", "lat": 33.997236, "lng": -81.025988, "attending": 1, "accepted": 1, "rate": 64 },
    { "id": "6901", "name": "University of South Florida", "city": "Tampa", "state": "Florida", "lat": 28.055175, "lng": -82.413729, "attending": 1, "accepted": 2, "rate": 44 },
    { "id": "1846", "name": "University of Southern Indiana", "city": "Evansville", "state": "Indiana", "lat": 37.962082, "lng": -87.676644, "attending": 1, "accepted": 0, "rate": 96 },
    { "id": "1848", "name": "University of St. Francis", "city": "Joliet", "state": "Illinois", "lat": 41.528, "lng": -88.1065, "attending": 1, "accepted": 0, "rate": 60 },
    { "id": "2954", "name": "University of St. Thomas", "city": "St. Paul", "state": "Minnesota", "lat": 44.941659, "lng": -93.190117, "attending": 1, "accepted": 2, "rate": 81 },
    { "id": "1864", "name": "University of Wisconsin - Milwaukee", "city": "Milwaukee", "state": "Wisconsin", "lat": 43.076092, "lng": -87.882194, "attending": 1, "accepted": 5, "rate": 78 },
    { "id": "1917", "name": "University of Wisconsin - Oshkosh", "city": "Oshkosh", "state": "Wisconsin", "lat": 44.027961, "lng": -88.552998, "attending": 1, "accepted": 3, "rate": 80 },
    { "id": "1919", "name": "University of Wisconsin - Platteville", "city": "Platteville", "state": "Wisconsin", "lat": 42.73083, "lng": -90.481977, "attending": 4, "accepted": 14, "rate": 84 },
    { "id": "1862", "name": "University of Wisconsin-Eau Claire", "city": "Eau Claire", "state": "Wisconsin", "lat": 44.798124, "lng": -91.503348, "attending": 1, "accepted": 3, "rate": 77 },
    { "id": "1863", "name": "University of Wisconsin-La Crosse", "city": "La Crosse", "state": "Wisconsin", "lat": 43.816301, "lng": -91.231268, "attending": 1, "accepted": 2, "rate": 73 },
    { "id": "1846b", "name": "University of Wisconsin-Madison", "city": "Madison", "state": "Wisconsin", "lat": 43.073858, "lng": -89.405356, "attending": 5, "accepted": 8, "rate": 49 },
    { "id": "1918", "name": "University of Wisconsin-River Falls", "city": "River Falls", "state": "Wisconsin", "lat": 44.8533, "lng": -92.622, "attending": 1, "accepted": 0, "rate": 83 },
    { "id": "1860", "name": "University of Wisconsin-Stevens Point", "city": "Stevens Point", "state": "Wisconsin", "lat": 44.529272, "lng": -89.571439, "attending": 1, "accepted": 2, "rate": 86 },
    { "id": "1921", "name": "University of Wisconsin-Whitewater", "city": "Whitewater", "state": "Wisconsin", "lat": 42.839812, "lng": -88.742337, "attending": 18, "accepted": 11, "rate": 93 },
    { "id": "4869", "name": "University of Wyoming", "city": "Laramie", "state": "Wyoming", "lat": 41.314949, "lng": -105.580453, "attending": 1, "accepted": 1, "rate": 96 },
    { "id": "4870", "name": "Utah State University", "city": "Logan", "state": "Utah", "lat": 41.745166, "lng": -111.809748, "attending": 1, "accepted": 1, "rate": 91 },
    { "id": "1872", "name": "Valparaiso University", "city": "Valparaiso", "state": "Indiana", "lat": 41.464606, "lng": -87.042704, "attending": 1, "accepted": 4, "rate": 94 },
    { "id": "5865", "name": "Virginia Polytechnic Institute and State University", "city": "Blacksburg", "state": "Virginia", "lat": 37.228572, "lng": -80.423098, "attending": 1, "accepted": 0, "rate": 57 },
    { "id": "1873", "name": "Viterbo University", "city": "La Crosse", "state": "Wisconsin", "lat": 43.8055, "lng": -91.2464, "attending": 1, "accepted": 0, "rate": 78 },
    { "id": "6929", "name": "Wartburg College", "city": "Waverly", "state": "Iowa", "lat": 42.726207, "lng": -92.48007, "attending": 2, "accepted": 2, "rate": 72 },
    { "id": "4854", "name": "Washington State University - Pullman", "city": "Pullman", "state": "Washington", "lat": 46.7298, "lng": -117.1817, "attending": 1, "accepted": 0, "rate": 83 },
    { "id": "2994", "name": "Washington University in St. Louis", "city": "St. Louis", "state": "Missouri", "lat": 38.648216, "lng": -90.311654, "attending": 1, "accepted": 1, "rate": 12 },
    { "id": "1894", "name": "Washtenaw Community College", "city": "Ann Arbor", "state": "Michigan", "lat": 42.2618, "lng": -83.6661, "attending": 1, "accepted": 0, "rate": 100 },
    { "id": "1938", "name": "Waubonsee Community College", "city": "Sugar Grove", "state": "Illinois", "lat": 41.791522, "lng": -88.468206, "attending": 20, "accepted": 7, "rate": 100 },
    { "id": "3522", "name": "Wellesley College", "city": "Wellesley", "state": "Massachusetts", "lat": 42.2934, "lng": -71.3059, "attending": 1, "accepted": 0, "rate": 14 },
    { "id": "1905", "name": "Western Illinois University", "city": "Macomb", "state": "Illinois", "lat": 40.468086, "lng": -90.686899, "attending": 11, "accepted": 18, "rate": 75 },
    { "id": "1901", "name": "Western Kentucky University", "city": "Bowling Green", "state": "Kentucky", "lat": 36.985035, "lng": -86.456828, "attending": 2, "accepted": 3, "rate": 97 },
    { "id": "1902", "name": "Western Michigan University", "city": "Kalamazoo", "state": "Michigan", "lat": 42.282194, "lng": -85.613759, "attending": 5, "accepted": 5, "rate": 83 },
    { "id": "3523", "name": "Westfield State University", "city": "Westfield", "state": "Massachusetts", "lat": 42.132698, "lng": -72.796503, "attending": 1, "accepted": 1, "rate": 92 },
    { "id": "1905b", "name": "Wheaton College", "city": "Wheaton", "state": "Illinois", "lat": 41.870025, "lng": -88.10041, "attending": 1, "accepted": 1, "rate": 88 },
    { "id": "6933", "name": "Winona State University", "city": "Winona", "state": "Minnesota", "lat": 44.047867, "lng": -91.644155, "attending": 1, "accepted": 2, "rate": 75 },
    { "id": "1918b", "name": "Worsham College of Mortuary Science", "city": "Wheeling", "state": "Illinois", "lat": 42.1466, "lng": -87.8967, "attending": 1, "accepted": 1, "rate": 90 },
    { "id": "1965", "name": "Xavier University", "city": "Cincinnati", "state": "Ohio", "lat": 39.148154, "lng": -84.477218, "attending": 1, "accepted": 7, "rate": 84 },
    { "id": "1975", "name": "Youngstown State University", "city": "Youngstown", "state": "Ohio", "lat": 41.1042, "lng": -80.6481, "attending": 1, "accepted": 0, "rate": 80 }
]